[
    {
        "name": "嘉義縣警察局",
        "address": "嘉義縣太保市祥和一路東段3號",
        "tel": "053620237 ",
        "location": {
            "lat": 23.4586716,
            "lng": 120.2948447
        }
    },
    {
        "name": "中埔分局",
        "address": "嘉義縣中埔鄉中埔村中正路66號",
        "tel": "052531013",
        "location": {
            "lat": 23.424845,
            "lng": 120.5237792
        }
    },
    {
        "name": "中埔派出所",
        "address": "嘉義縣中埔鄉中埔村中正路66號",
        "tel": "052531203",
        "location": {
            "lat": 23.424845,
            "lng": 120.5237792
        }
    },
    {
        "name": "東興派出所",
        "address": "嘉義縣中埔鄉東興村凍子腳17號",
        "tel": "052532050",
        "location": {
            "lat": 23.35124,
            "lng": 120.53121
        }
    },
    {
        "name": "觸口派出所",
        "address": "嘉義縣番路鄉觸口村觸口147號",
        "tel": "052591358",
        "location": {
            "lat": 23.439739,
            "lng": 120.60121
        }
    },
    {
        "name": "公田派出所",
        "address": "嘉義縣番路鄉公田村隙頂100號",
        "tel": "052586114",
        "location": {
            "lat": 23.4480903,
            "lng": 120.6487508
        }
    },
    {
        "name": "頂六派出所",
        "address": "嘉義縣中埔鄉富收村頂中下街60號",
        "tel": "052393984",
        "location": {
            "lat": 23.4482771,
            "lng": 120.4911688
        }
    },
    {
        "name": "同仁派出所",
        "address": "嘉義縣中埔鄉同仁村同仁99號",
        "tel": "052531201",
        "location": {
            "lat": 23.4055702,
            "lng": 120.5126441
        }
    },
    {
        "name": "義仁派出所",
        "address": "嘉義縣中埔鄉隆興村汴頭11號",
        "tel": "052531202",
        "location": {
            "lat": 23.4409033,
            "lng": 120.5331324
        }
    },
    {
        "name": "大埔分駐所",
        "address": "嘉義縣大埔鄉大埔村大埔134號",
        "tel": "052521034",
        "location": {
            "lat": 23.2992456,
            "lng": 120.5942895
        }
    },
    {
        "name": "番路分駐所",
        "address": "嘉義縣番路鄉下坑村菜公店27號",
        "tel": "052591212",
        "location": {
            "lat": 23.4644473,
            "lng": 120.5547988
        }
    },
    {
        "name": "三和派出所",
        "address": "嘉義縣中埔鄉和興村中華路827號",
        "tel": "052309091",
        "location": {
            "lat": 23.4493369,
            "lng": 120.459088
        }
    },
    {
        "name": "布袋分局",
        "address": "嘉義縣布袋鎮自由路3號",
        "tel": "053472574",
        "location": {
            "lat": 23.3785273,
            "lng": 120.166503
        }
    },
    {
        "name": "新店派出所",
        "address": "嘉義縣義竹鄉新店村1號",
        "tel": "053426104",
        "location": {
            "lat": 23.3592224,
            "lng": 120.22046
        }
    },
    {
        "name": "過路派出所",
        "address": "嘉義縣義竹鄉西過村301號",
        "tel": "053436575",
        "location": {
            "lat": 23.3083554,
            "lng": 120.1993381
        }
    },
    {
        "name": "光榮派出所",
        "address": "嘉義縣義竹鄉東光村7號",
        "tel": "053411223",
        "location": {
            "lat": 23.3721221,
            "lng": 120.2442687
        }
    },
    {
        "name": "義竹分駐所",
        "address": "嘉義縣義竹鄉仁里村359之5號",
        "tel": "053412009",
        "location": {
            "lat": 23.3357439,
            "lng": 120.2393579
        }
    },
    {
        "name": "新塭派出所",
        "address": "嘉義縣布袋鎮新民路293號",
        "tel": "053431154",
        "location": {
            "lat": 23.4605691,
            "lng": 120.2450381
        }
    },
    {
        "name": "景山派出所",
        "address": "嘉義縣布袋鎮東港里埔仔庴34號",
        "tel": "053472607",
        "location": {
            "lat": 23.3750467,
            "lng": 120.1950093
        }
    },
    {
        "name": "過溝派出所",
        "address": "嘉義縣布袋鎮中安里110號",
        "tel": "053451064",
        "location": {
            "lat": 23.4154483,
            "lng": 120.1778483
        }
    },
    {
        "name": "布袋派出所",
        "address": "嘉義縣布袋鎮光復里自由路3號1樓",
        "tel": "053472047",
        "location": {
            "lat": 23.3785273,
            "lng": 120.166503
        }
    },
    {
        "name": "朴子分局",
        "address": "嘉義縣朴子市光復路33號",
        "tel": "053793584",
        "location": {
            "lat": 23.4651891,
            "lng": 120.2463659
        }
    },
    {
        "name": "朴子派出所",
        "address": "嘉義縣朴子市光復路33號",
        "tel": "053792014",
        "location": {
            "lat": 23.4651891,
            "lng": 120.2463659
        }
    },
    {
        "name": "雙溪派出所",
        "address": "嘉義縣朴子市溪口里145號",
        "tel": "053794553",
        "location": {
            "lat": 23.4579733,
            "lng": 120.284874
        }
    },
    {
        "name": "松梅派出所",
        "address": "嘉義縣朴子市梅華里牛挑灣108號",
        "tel": "053691572",
        "location": {
            "lat": 23.4098967,
            "lng": 120.2555848
        }
    },
    {
        "name": "六美派出所",
        "address": "嘉義縣六腳鄉港美村28號",
        "tel": "053802244",
        "location": {
            "lat": 23.5543786,
            "lng": 120.2934429
        }
    },
    {
        "name": "北美派出所",
        "address": "嘉義縣六腳鄉崙陽村崙子183號",
        "tel": "057811105",
        "location": {
            "lat": 23.5596288,
            "lng": 120.3032174
        }
    },
    {
        "name": "永竹派出所",
        "address": "嘉義縣六腳鄉竹本村9之26號",
        "tel": "053780845",
        "location": {
            "lat": 23.504076,
            "lng": 120.2556688
        }
    },
    {
        "name": "六家派出所",
        "address": "嘉義縣六腳鄉六腳村5號",
        "tel": "053780843",
        "location": {
            "lat": 23.5060138,
            "lng": 120.2541635
        }
    },
    {
        "name": "六腳分駐所",
        "address": "嘉義縣六腳鄉蒜頭村75號",
        "tel": "053802008",
        "location": {
            "lat": 23.504076,
            "lng": 120.2556688
        }
    },
    {
        "name": "龍崗派出所",
        "address": "嘉義縣東石鄉東崙村62號",
        "tel": "053451740",
        "location": {
            "lat": 23.4763254,
            "lng": 120.1687739
        }
    },
    {
        "name": "下楫派出所",
        "address": "嘉義縣東石鄉下楫村137號",
        "tel": "053601849",
        "location": {
            "lat": 0,
            "lng": 0
        }
    },
    {
        "name": "三江派出所",
        "address": "嘉義縣東石鄉三家村1號",
        "tel": "053732501",
        "location": {
            "lat": 23.4763254,
            "lng": 120.1687739
        }
    },
    {
        "name": "東石分駐所",
        "address": "嘉義縣東石鄉東石村36號",
        "tel": "053732240",
        "location": {
            "lat": 23.4556249,
            "lng": 120.1503222
        }
    },
    {
        "name": "竹村派出所",
        "address": "嘉義縣朴子市竹村里14之6號",
        "tel": "053693219",
        "location": {
            "lat": 23.4404486,
            "lng": 120.2460686
        }
    },
    {
        "name": "大鄉派出所",
        "address": "嘉義縣朴子市大鄉里223號",
        "tel": "053792091",
        "location": {
            "lat": 23.4607681,
            "lng": 120.2417034
        }
    },
    {
        "name": "港墘派出所",
        "address": "嘉義縣東石鄉港墘村91號",
        "tel": "053793564",
        "location": {
            "lat": 23.4763254,
            "lng": 120.1687739
        }
    },
    {
        "name": "水上分局",
        "address": "嘉義縣水上鄉水頭村中興路528號",
        "tel": "052682025",
        "location": {
            "lat": 23.4323906,
            "lng": 120.3991468
        }
    },
    {
        "name": "成功派出所",
        "address": "嘉義縣水上鄉三界村156號",
        "tel": "052392064",
        "location": {
            "lat": 23.4325631,
            "lng": 120.4751497
        }
    },
    {
        "name": "新埤派出所",
        "address": "嘉義縣太保市舊埤里新埤9號",
        "tel": "053612280",
        "location": {
            "lat": 23.490933,
            "lng": 120.3328971
        }
    },
    {
        "name": "後堀派出所",
        "address": "嘉義縣鹿草鄉後堀村61號",
        "tel": "053752444",
        "location": {
            "lat": 23.4123265,
            "lng": 120.3150959
        }
    },
    {
        "name": "下潭派出所",
        "address": "嘉義縣鹿草鄉光潭村152號",
        "tel": "053651303",
        "location": {
            "lat": 23.4074195,
            "lng": 120.3118982
        }
    },
    {
        "name": "中莊派出所",
        "address": "嘉義縣水上鄉中庄村66號",
        "tel": "052890654",
        "location": {
            "lat": 23.4488335,
            "lng": 120.4135062
        }
    },
    {
        "name": "南新派出所",
        "address": "嘉義縣太保市北港路2段50號",
        "tel": "052373022",
        "location": {
            "lat": 23.49663,
            "lng": 120.383263
        }
    },
    {
        "name": "柳林派出所",
        "address": "嘉義縣水上鄉柳鄉村柳子林119號",
        "tel": "052682515",
        "location": {
            "lat": 23.4382366,
            "lng": 120.4176425
        }
    },
    {
        "name": "南靖派出所",
        "address": "嘉義縣水上鄉三鎮村三鎮路51號",
        "tel": "052682364",
        "location": {
            "lat": 23.4147098,
            "lng": 120.3863605
        }
    },
    {
        "name": "水上派出所",
        "address": "嘉義縣水上鄉水上村中山路2段291號",
        "tel": "052682264",
        "location": {
            "lat": 23.432752,
            "lng": 120.397461
        }
    },
    {
        "name": "太保分駐所",
        "address": "嘉義縣太保市太保里23號",
        "tel": "053711555",
        "location": {
            "lat": 23.4543028,
            "lng": 120.3318657
        }
    },
    {
        "name": "鹿草分駐所",
        "address": "嘉義縣鹿草鄉西井村286號",
        "tel": "053752302",
        "location": {
            "lat": 23.4106821,
            "lng": 120.3546954
        }
    },
    {
        "name": "民雄分局",
        "address": "嘉義縣民雄鄉東榮村民族路21號",
        "tel": "052262014",
        "location": {
            "lat": 23.5551937,
            "lng": 120.4301903
        }
    },
    {
        "name": "民雄派出所",
        "address": "嘉義縣民雄鄉東榮村民族路21號",
        "tel": "052262192",
        "location": {
            "lat": 23.5551937,
            "lng": 120.4301903
        }
    },
    {
        "name": "豐收派出所",
        "address": "嘉義縣民雄鄉豐收村好收路48號",
        "tel": "052262732",
        "location": {
            "lat": 23.562694,
            "lng": 120.450899
        }
    },
    {
        "name": "菁埔派出所",
        "address": "嘉義縣民雄鄉菁埔村菁埔138號",
        "tel": "052263510",
        "location": {
            "lat": 23.5566013,
            "lng": 120.3986619
        }
    },
    {
        "name": "溝背派出所",
        "address": "嘉義縣大林鎮義和里三塊厝2號",
        "tel": "052952902",
        "location": {
            "lat": 23.6139658,
            "lng": 120.4874408
        }
    },
    {
        "name": "柳溝派出所",
        "address": "嘉義縣溪口鄉柳溝村阿連庄7號",
        "tel": "052691182",
        "location": {
            "lat": 23.590019,
            "lng": 120.423773
        }
    },
    {
        "name": "安和派出所",
        "address": "嘉義縣新港鄉安和村16鄰番婆16號",
        "tel": "053772104",
        "location": {
            "lat": 23.5140515,
            "lng": 120.3149144
        }
    },
    {
        "name": "南港派出所",
        "address": "嘉義縣新港鄉南港村南港1號",
        "tel": "057811618",
        "location": {
            "lat": 23.5609839,
            "lng": 120.3178449
        }
    },
    {
        "name": "月眉派出所",
        "address": "嘉義縣新港鄉月潭村月眉潭204號",
        "tel": "053772524",
        "location": {
            "lat": 23.5226534,
            "lng": 120.3518377
        }
    },
    {
        "name": "北斗派出所",
        "address": "嘉義縣民雄鄉北斗村北勢子17號",
        "tel": "052213731",
        "location": {
            "lat": 23.5341559,
            "lng": 120.4571413
        }
    },
    {
        "name": "民興派出所",
        "address": "嘉義縣民雄鄉興中村江厝店10號",
        "tel": "052213735",
        "location": {
            "lat": 23.5259029,
            "lng": 120.4206594
        }
    },
    {
        "name": "大美派出所",
        "address": "嘉義縣大林鎮大美里大埔美1號",
        "tel": "052952905",
        "location": {
            "lat": 23.6026044,
            "lng": 120.5047752
        }
    },
    {
        "name": "新港分駐所",
        "address": "嘉義縣新港鄉大興村中正路47號",
        "tel": "053742009",
        "location": {
            "lat": 23.5567961,
            "lng": 120.3464056
        }
    },
    {
        "name": "溪口分駐所",
        "address": "嘉義縣溪口鄉溪東村中正路142號",
        "tel": "052691009",
        "location": {
            "lat": 23.604454,
            "lng": 120.396022
        }
    },
    {
        "name": "大林分駐所",
        "address": "嘉義縣大林鎮中山路86之2號",
        "tel": "052652850",
        "location": {
            "lat": 23.6028944,
            "lng": 120.4551036
        }
    },
    {
        "name": "埤頭派出所",
        "address": "嘉義縣新港鄉埤子村埤仔頭32號",
        "tel": "053760853",
        "location": {
            "lat": 23.5865354,
            "lng": 120.365642
        }
    },
    {
        "name": "竹崎分局",
        "address": "嘉義縣竹崎鄉竹崎村中山路72號",
        "tel": "052611089",
        "location": {
            "lat": 23.5231089,
            "lng": 120.5508755
        }
    },
    {
        "name": "竹崎派出所",
        "address": "嘉義縣竹崎鄉竹崎村中山路72號",
        "tel": "052611336",
        "location": {
            "lat": 23.5231089,
            "lng": 120.5508755
        }
    },
    {
        "name": "仁和派出所",
        "address": "嘉義縣竹崎鄉獅埜村1鄰東義8號",
        "tel": "052110056",
        "location": {
            "lat": 23.511838,
            "lng": 120.490841
        }
    },
    {
        "name": "龍山派出所",
        "address": "嘉義縣竹崎鄉龍山村瓦厝埔5號",
        "tel": "052611256",
        "location": {
            "lat": 23.5181841,
            "lng": 120.5760999
        }
    },
    {
        "name": "復金派出所",
        "address": "嘉義縣竹崎鄉復金村11鄰52號",
        "tel": "052611254",
        "location": {
            "lat": 23.5056987,
            "lng": 120.5744997
        }
    },
    {
        "name": "仁壽派出所",
        "address": "嘉義縣竹崎鄉仁壽村2鄰交力坪30號",
        "tel": "052501454",
        "location": {
            "lat": 23.5316999,
            "lng": 120.6435691
        }
    },
    {
        "name": "中和派出所",
        "address": "嘉義縣竹崎鄉中和村奮起湖2鄰24號",
        "tel": "052561054",
        "location": {
            "lat": 23.503085,
            "lng": 120.695093
        }
    },
    {
        "name": "太平派出所",
        "address": "嘉義縣梅山鄉太平村大坪42號",
        "tel": "052571202",
        "location": {
            "lat": 23.580963,
            "lng": 120.5617366
        }
    },
    {
        "name": "瑞里派出所",
        "address": "嘉義縣梅山鄉瑞里村幼葉林120號",
        "tel": "052501041",
        "location": {
            "lat": 23.540339,
            "lng": 120.6650806
        }
    },
    {
        "name": "新美派出所",
        "address": "嘉義縣阿里山鄉新美村新美56號",
        "tel": "052513079",
        "location": {
            "lat": 23.3379326,
            "lng": 120.6842327
        }
    },
    {
        "name": "太和派出所",
        "address": "嘉義縣梅山鄉太和村蛤里味24號",
        "tel": "052661055",
        "location": {
            "lat": 23.5336678,
            "lng": 120.7210818
        }
    },
    {
        "name": "山美派出所",
        "address": "嘉義縣阿里山鄉山美村山美57號",
        "tel": "052586154",
        "location": {
            "lat": 23.3837544,
            "lng": 120.6683316
        }
    },
    {
        "name": "大南派出所",
        "address": "嘉義縣梅山鄉大南村南勢坑48號",
        "tel": "052621412",
        "location": {
            "lat": 23.5529512,
            "lng": 120.5516149
        }
    },
    {
        "name": "里佳派出所",
        "address": "嘉義縣阿里山鄉里佳村里佳50號",
        "tel": "052511124",
        "location": {
            "lat": 23.4056017,
            "lng": 120.7207948
        }
    },
    {
        "name": "阿里山派出所",
        "address": "嘉義縣阿里山鄉中正村62號",
        "tel": "052679975",
        "location": {
            "lat": 23.5132,
            "lng": 120.811682
        }
    },
    {
        "name": "來吉派出所",
        "address": "嘉義縣阿里山鄉來吉村來吉4鄰95號",
        "tel": "052661185",
        "location": {
            "lat": 23.5342072,
            "lng": 120.769476
        }
    },
    {
        "name": "內埔派出所",
        "address": "嘉義縣竹崎鄉內埔村元興路112號",
        "tel": "052541040",
        "location": {
            "lat": 23.4850722,
            "lng": 120.5594587
        }
    },
    {
        "name": "樂野分駐所",
        "address": "嘉義縣阿里山鄉中和村20鄰石棹22之6號",
        "tel": "052561325",
        "location": {
            "lat": 0,
            "lng": 0
        }
    },
    {
        "name": "鹿滿派出所",
        "address": "嘉義縣竹崎鄉鹿滿村鹿鳴路56號",
        "tel": "052611255",
        "location": {
            "lat": 23.4979558,
            "lng": 120.5322971
        }
    },
    {
        "name": "達邦分駐所",
        "address": "嘉義縣阿里山鄉達邦村達邦25號",
        "tel": "052511006",
        "location": {
            "lat": 23.4513821,
            "lng": 120.7395662
        }
    },
    {
        "name": "十字派出所",
        "address": "嘉義縣阿里山鄉十字村1鄰28號",
        "tel": "052511223",
        "location": {
            "lat": 23.5030329,
            "lng": 120.7407425
        }
    },
    {
        "name": "梅山分駐所",
        "address": "嘉義縣梅山鄉梅東村中山路68號",
        "tel": "052621003",
        "location": {
            "lat": 23.5816151,
            "lng": 120.5590041
        }
    }
]