[{"name":"南投縣政府警察局","address":"南投縣南投市南崗二路133號","tel":"0492222448","location":{"lat":23.9096907,"lng":120.6789119}},{"name":"南投分局","address":"南投縣南投市彰南路2段109號","tel":"0492222923","location":{"lat":23.91018,"lng":120.6832}},{"name":"南投派出所","address":"南投縣南投市彰南路2段109號","tel":"0492222336","location":{"lat":23.91018,"lng":120.6832}},{"name":"永和派出所","address":"南投縣名間鄉大庄村南田路138號","tel":"0492271002","location":{"lat":23.8742938,"lng":120.6541546}},{"name":"赤水派出所","address":"南投縣名間鄉赤水村南田路291號","tel":"0492271159","location":{"lat":23.8572308,"lng":120.6293325}},{"name":"崁峰派出所","address":"南投縣名間鄉崁腳村名松路1段309號","tel":"0492582138","location":{"lat":23.8352866,"lng":120.6612044}},{"name":"名間分駐所","address":"南投縣名間鄉中正村彰南路30號","tel":"0492732149","location":{"lat":23.837673,"lng":120.7036938}},{"name":"新佳派出所","address":"南投縣名間鄉新街村彰南路422號","tel":"0492225160","location":{"lat":23.8785667,"lng":120.693545}},{"name":"鳳鳴派出所","address":"南投縣南投市八卦路837號","tel":"0492291939","location":{"lat":23.9260092,"lng":120.6380061}},{"name":"半山派出所","address":"南投縣南投市彰南路3段19號","tel":"0492251264","location":{"lat":23.9241278,"lng":120.6759479}},{"name":"中興分局","address":"南投縣南投市光華路115號","tel":"0492332585","location":{"lat":23.9504198,"lng":120.6935212}},{"name":"中興派出所","address":"南投縣南投市光華路115號","tel":"0492332544","location":{"lat":23.9504198,"lng":120.6935212}},{"name":"永清派出所","address":"南投縣南投市南營路745號","tel":"0492325314","location":{"lat":23.9415401,"lng":120.6787996}},{"name":"光明派出所","address":"南投縣南投市光明路35號","tel":"0492332586","location":{"lat":23.9388866,"lng":120.6974743}},{"name":"府西派出所","address":"南投縣南投市虎山路15號","tel":"0492332557","location":{"lat":23.9578866,"lng":120.6851269}},{"name":"仁愛分局","address":"南投縣仁愛鄉大同村仁和路87號","tel":"0492802204","location":{"lat":24.0233432,"lng":121.1325379}},{"name":"霧社派出所","address":"南投縣仁愛鄉大同村仁和路87號","tel":"0492802520","location":{"lat":24.0233432,"lng":121.1325379}},{"name":"翠巒派出所","address":"南投縣仁愛鄉力行村翠巒路23號","tel":"0492960040","location":{"lat":24.1795309,"lng":121.2001585}},{"name":"親愛派出所","address":"南投縣仁愛鄉親愛村高平路4號","tel":"0492974245","location":{"lat":23.9683494,"lng":121.1082884}},{"name":"春陽派出所","address":"南投縣仁愛鄉春陽村永樂巷57號","tel":"0492802396","location":{"lat":24.0278269,"lng":121.14914}},{"name":"中原派出所","address":"南投縣仁愛鄉互助村中華路76號","tel":"0492941073","location":{"lat":24.0634846,"lng":120.9684291}},{"name":"眉原派出所","address":"南投縣仁愛鄉互助村中華路76號","tel":"0492941073","location":{"lat":24.0634846,"lng":120.9684291}},{"name":"清流派出所","address":"南投縣仁愛鄉互助村中華路76號","tel":"0492941073","location":{"lat":24.0634846,"lng":120.9684291}},{"name":"瑞岩派出所","address":"南投縣仁愛鄉發祥村光復巷21號","tel":"0492955185","location":{"lat":24.122492,"lng":121.1571921}},{"name":"南豐派出所","address":"南投縣仁愛鄉南豐村中正路119之1號","tel":"0492920085","location":{"lat":24.0004021,"lng":121.0805711}},{"name":"榮興派出所","address":"南投縣仁愛鄉榮興村碧綠巷24號","tel":"0425991064","location":{"lat":24.2232274,"lng":121.2895099}},{"name":"過坑派出所","address":"南投縣仁愛鄉中正村平等巷118號","tel":"0492925753","location":{"lat":23.9045969,"lng":120.9915}},{"name":"平靜派出所","address":"南投縣仁愛鄉都達村法觀路18號","tel":"0492970196","location":{"lat":23.8387601,"lng":120.9876321}},{"name":"靜觀派出所","address":"南投縣仁愛鄉都達村法觀路18號","tel":"0492970196","location":{"lat":23.8387601,"lng":120.9876321}},{"name":"紅香派出所","address":"南投縣仁愛鄉發祥村仁盛路22號","tel":"0492955187","location":{"lat":24.1603917,"lng":121.1766538}},{"name":"松岡派出所","address":"南投縣仁愛鄉大同村仁和路135號","tel":"0492802395","location":{"lat":24.0727168,"lng":121.1685572}},{"name":"華崗派出所","address":"南投縣仁愛鄉翠華村華崗119之2號","tel":"0492960200","location":{"lat":24.19305,"lng":121.225944}},{"name":"望洋派出所","address":"南投縣仁愛鄉力行村新望洋68號","tel":"0492955210","location":{"lat":24.1478604,"lng":121.1892833}},{"name":"廬山派出所","address":"南投縣仁愛鄉精英村榮華巷43號","tel":"0492802521","location":{"lat":24.022482,"lng":121.1880151}},{"name":"武界派出所","address":"南投縣仁愛鄉法治村界山巷4號","tel":"0492977001","location":{"lat":23.9168899,"lng":121.0460186}},{"name":"萬豐派出所","address":"南投縣仁愛鄉法治村界山巷4號","tel":"0492977001","location":{"lat":23.9168899,"lng":121.0460186}},{"name":"翠峰派出所","address":"南投縣仁愛鄉大同村仁和路220號","tel":"0492802603","location":{"lat":24.0235056,"lng":121.1333408}},{"name":"信義分局","address":"南投縣信義鄉明德村玉山路49號","tel":"0492791260","location":{"lat":23.6972269,"lng":120.8542261}},{"name":"信義派出所","address":"南投縣信義鄉明德村玉山路49號","tel":"0492791261","location":{"lat":23.6972269,"lng":120.8542261}},{"name":"久美派出所","address":"南投縣信義鄉望美村美信巷55號","tel":"0492831472","location":{"lat":23.6190174,"lng":120.8841916}},{"name":"潭南派出所","address":"南投縣信義鄉潭南村和平巷47號","tel":"0492741264","location":{"lat":23.8215862,"lng":120.9396946}},{"name":"豐丘派出所","address":"南投縣信義鄉豐丘村高平巷8號","tel":"0492791583","location":{"lat":23.6705879,"lng":120.8751936}},{"name":"新鄉派出所","address":"南投縣信義鄉新鄉村新鄉路105號","tel":"0492831595","location":{"lat":23.6402581,"lng":120.8690477}},{"name":"東埔派出所","address":"南投縣信義鄉東埔村開高巷56號","tel":"0492701321","location":{"lat":23.5617776,"lng":120.9281663}},{"name":"雙龍派出所","address":"南投縣信義鄉雙龍村光復巷33號","tel":"0492741321","location":{"lat":23.7834985,"lng":120.9474171}},{"name":"羅娜派出所","address":"南投縣信義鄉羅娜村信筆巷66號","tel":"0492831471","location":{"lat":23.628454,"lng":120.8697547}},{"name":"人倫派出所","address":"南投縣信義鄉人和村民生巷9號","tel":"0492770310","location":{"lat":23.7793833,"lng":120.8965674}},{"name":"青雲派出所","address":"南投縣信義鄉地利村開信巷14號","tel":"0492741142","location":{"lat":23.7944085,"lng":120.9426263}},{"name":"和社派出所","address":"南投縣信義鄉同富村同和巷6號","tel":"0492701304","location":{"lat":23.5958812,"lng":120.888687}},{"name":"埔里分局","address":"南投縣埔里鎮中山路2段235號","tel":"0492982429","location":{"lat":23.9668108,"lng":120.969334}},{"name":"埔里派出所","address":"南投縣埔里鎮中山路2段235號","tel":"0492998439","location":{"lat":23.9668108,"lng":120.969334}},{"name":"鯉潭派出所","address":"南投縣埔里鎮中山路1段319號","tel":"0492987829","location":{"lat":23.9763127,"lng":120.9867104}},{"name":"桃米派出所","address":"南投縣埔里鎮桃米里桃米巷48號","tel":"0492913832","location":{"lat":23.9425448,"lng":120.9296771}},{"name":"合成派出所","address":"南投縣埔里鎮合成里西安路3段225號","tel":"0492931587","location":{"lat":24.0366776,"lng":120.9248365}},{"name":"梅林派出所","address":"南投縣國姓鄉北港村國姓路48號","tel":"0492461041","location":{"lat":24.0579452,"lng":120.9121723}},{"name":"長流派出所","address":"南投縣國姓鄉長流村大長路351號","tel":"0492431040","location":{"lat":24.0724957,"lng":120.8766338}},{"name":"長壽派出所","address":"南投縣國姓鄉福龜村中正路1段157號","tel":"0492721130","location":{"lat":24.0124858,"lng":120.8194087}},{"name":"北山派出所","address":"南投縣國姓鄉北山村中正路4段159號","tel":"0492451181","location":{"lat":23.9814386,"lng":120.8726018}},{"name":"國姓分駐所","address":"南投縣國姓鄉石門里國姓路265號","tel":"0492721232","location":{"lat":24.0401934,"lng":120.8576281}},{"name":"史港派出所","address":"南投縣埔里鎮史港里西安路2段355號","tel":"0492931692","location":{"lat":24.0007716,"lng":120.963362}},{"name":"愛蘭派出所","address":"南投縣埔里鎮鐵山里鐵山一巷5之1號","tel":"0492912334","location":{"lat":23.976447,"lng":120.9388213}},{"name":"隆生派出所","address":"南投縣埔里鎮南環路400號","tel":"0492904298","location":{"lat":23.9514783,"lng":120.9616075}},{"name":"草屯分局","address":"南投縣草屯鎮中正路571號","tel":"0492362002","location":{"lat":23.979048,"lng":120.694651}},{"name":"上林派出所","address":"南投縣草屯鎮草溪路136之2號","tel":"0492329309","location":{"lat":23.958089,"lng":120.672018}},{"name":"雙冬派出所","address":"南投縣草屯鎮中正路46號","tel":"0492571222","location":{"lat":23.9835955,"lng":120.7914905}},{"name":"復興派出所","address":"南投縣草屯鎮碧山路755號","tel":"0492334783","location":{"lat":23.9758643,"lng":120.667663}},{"name":"爽文派出所","address":"南投縣中寮鄉爽文村龍南路189號","tel":"0492601049","location":{"lat":23.934971,"lng":120.760172}},{"name":"中寮分駐所","address":"南投縣中寮鄉永平村永平路278號","tel":"0492691330","location":{"lat":23.879274,"lng":120.7656728}},{"name":"豐城派出所","address":"南投縣草屯鎮中正路216號","tel":"0492552223","location":{"lat":23.9845472,"lng":120.7418883}},{"name":"新光派出所","address":"南投縣草屯鎮芬草路2段412號","tel":"0492321224","location":{"lat":23.9931438,"lng":120.6683347}},{"name":"草屯派出所","address":"南投縣草屯鎮中山里草鞋墩一街10號","tel":"0492362066","location":{"lat":23.973825,"lng":120.6808316}},{"name":"中正派出所","address":"南投縣草屯鎮中正路571號","tel":"0492306200","location":{"lat":23.979048,"lng":120.694651}},{"name":"竹山分局","address":"南投縣竹山鎮集山路3段968號","tel":"0492642040","location":{"lat":23.7570205,"lng":120.6828233}},{"name":"竹山派出所","address":"南投縣竹山鎮集山路3段968號","tel":"0492642012","location":{"lat":23.7570205,"lng":120.6828233}},{"name":"頂林派出所","address":"南投縣竹山鎮頂林路399號","tel":"0492648702","location":{"lat":23.720132,"lng":120.7010433}},{"name":"溪頭派出所","address":"南投縣鹿谷鄉內湖村與產路1之20號","tel":"0492612173","location":{"lat":23.6722621,"lng":120.7982029}},{"name":"瑞竹派出所","address":"南投縣竹山鎮鯉南路293號","tel":"0492711710","location":{"lat":23.6620857,"lng":120.6656964}},{"name":"中和派出所","address":"南投縣竹山鎮前山路2段119號","tel":"0492648620","location":{"lat":23.7633923,"lng":120.6629791}},{"name":"過溪派出所","address":"南投縣竹山鎮鯉南路172號","tel":"0492648927","location":{"lat":23.7269926,"lng":120.6675226}},{"name":"桶頭派出所","address":"南投縣竹山鎮鯉南路319號","tel":"0492711044","location":{"lat":23.6471301,"lng":120.6553013}},{"name":"秀峰派出所","address":"南投縣鹿谷鄉秀峰村仁愛路174號","tel":"0492671930","location":{"lat":23.7802023,"lng":120.7759291}},{"name":"竹林派出所","address":"南投縣鹿谷鄉光復路106號","tel":"0492676142","location":{"lat":23.7268663,"lng":120.7554877}},{"name":"鳳凰派出所","address":"南投縣鹿谷鄉鳳凰村新進巷1號","tel":"0492751102","location":{"lat":23.73489,"lng":120.7840056}},{"name":"鹿谷分駐所","address":"南投縣鹿谷鎮鹿谷村中正路2段76號","tel":"0492752040","location":{"lat":23.7461613,"lng":120.7539418}},{"name":"社寮派出所","address":"南投縣竹山鎮社寮里集山路1段1694號","tel":"0492622002","location":{"lat":23.8151841,"lng":120.722876}},{"name":"延平派出所","address":"南投縣竹山鎮延和里集山路3段22號","tel":"0492644365","location":{"lat":23.7667204,"lng":120.7059431}},{"name":"杉林派出所","address":"南投縣竹山鎮大鞍里溪山路5號","tel":"0492611307","location":{"lat":23.6499099,"lng":120.7877304}},{"name":"集集分局","address":"南投縣集集鎮民生路63號","tel":"0492762702","location":{"lat":23.8087456,"lng":120.8579257}},{"name":"集集派出所","address":"南投縣集集鎮民生路63號","tel":"0492760828","location":{"lat":23.8087456,"lng":120.8579257}},{"name":"郡坑分駐所","address":"南投縣水里鄉群坑村郡水信路2段80號","tel":"0492821481","location":{"lat":23.7442414,"lng":120.8590634}},{"name":"東光派出所","address":"南投縣魚池鄉東光村慶隆巷32號","tel":"0492880126","location":{"lat":23.8899863,"lng":120.9660555}},{"name":"五城派出所","address":"南投縣魚池鄉五城村五城巷24號","tel":"0492895114","location":{"lat":23.8878741,"lng":120.8880523}},{"name":"車埕派出所","address":"南投縣水里鄉車埕村民權巷108號","tel":"0492771154","location":{"lat":23.833973,"lng":120.866438}},{"name":"頭社派出所","address":"南投縣魚池鄉頭社村平和巷145號","tel":"0492861013","location":{"lat":23.8337889,"lng":120.8960468}},{"name":"德化派出所","address":"南投縣魚池鄉日月村中正路288號","tel":"0492850119","location":{"lat":23.8472107,"lng":120.9322693}},{"name":"日月潭派出所","address":"南投縣魚池鄉水社村中山路144號","tel":"0492855121","location":{"lat":23.8667264,"lng":120.9113322}},{"name":"魚池分駐所","address":"南投縣魚池鄉魚池村魚池街358號","tel":"0492895501","location":{"lat":23.896957,"lng":120.9369785}},{"name":"水里分駐所","address":"南投縣水里鄉北埔村博愛街260號","tel":"0492770117","location":{"lat":23.8111398,"lng":120.84917}},{"name":"隘寮派出所","address":"南投縣集集鎮田寮里龍泉巷25號","tel":"049781064","location":{"lat":23.8348405,"lng":120.7509235}}]