[{"name":"基隆市警察局","address":"基隆市信義區信二路205號","tel":"0224248141","location":{"lat":25.1296363,"lng":121.7495312}},{"name":"第一分局","address":"基隆市仁愛區仁五路22號","tel":"0224222741","location":{"lat":25.127673,"lng":121.7406748}},{"name":"延平街派出所","address":"基隆市仁愛區仁二路76號","tel":"0224246950","location":{"lat":25.1277531,"lng":121.7487037}},{"name":"南榮路派出所","address":"基隆市仁愛區南榮路225號","tel":"0224242437","location":{"lat":25.1216394,"lng":121.7431635}},{"name":"忠二路派出所","address":"基隆市仁愛區忠二路2之1號","tel":"0224241363","location":{"lat":25.1296422,"lng":121.7410309}},{"name":"第二分局","address":"基隆市信義區信二路193號","tel":"0224222742","location":{"lat":25.129583,"lng":121.7501216}},{"name":"信義派出所","address":"基隆市信義區信二路193號","tel":"0224211595","location":{"lat":25.129583,"lng":121.7501216}},{"name":"深澳坑派出所","address":"基隆市信義區深澳坑路69號","tel":"0224654170","location":{"lat":25.127209,"lng":121.785286}},{"name":"信六路派出所","address":"基隆市中正區義一路148號","tel":"0224246948","location":{"lat":25.1352697,"lng":121.7473615}},{"name":"八斗子分駐所","address":"基隆市中正區環港街98號","tel":"0224692077","location":{"lat":25.1403289,"lng":121.7932081}},{"name":"和一路派出所","address":"基隆市中正區和一路146號","tel":"0224622752","location":{"lat":25.1550823,"lng":121.7650523}},{"name":"安瀾橋派出所","address":"基隆市中正區中正路320號","tel":"0224622435","location":{"lat":25.1424914,"lng":121.7608437}},{"name":"東光派出所","address":"基隆市信義區東明路61號","tel":"0224656443","location":{"lat":25.1275313,"lng":121.7627426}},{"name":"正濱派出所","address":"基隆市中正區中正路511號","tel":"0224621889","location":{"lat":25.1526825,"lng":121.7681337}},{"name":"第三分局","address":"基隆市七堵區富民里明德一路142號","tel":"0224558843","location":{"lat":25.0983532,"lng":121.7154195}},{"name":"復興派出所","address":"基隆市七堵區華新一路40之3號","tel":"0224515602","location":{"lat":25.090802,"lng":121.668147}},{"name":"瑪陵派出所","address":"基隆市七堵區大華二路194號","tel":"0224565085","location":{"lat":25.1110394,"lng":121.6869242}},{"name":"碇內派出所","address":"基隆市暖暖區源遠路249巷36號","tel":"0224576080","location":{"lat":25.0996909,"lng":121.7551407}},{"name":"暖暖派出所","address":"基隆市暖暖區暖暖街119號","tel":"0224572331","location":{"lat":25.1010225,"lng":121.737742}},{"name":"八堵分駐所","address":"基隆市暖暖區八堵路69號","tel":"0224562438","location":{"lat":25.1090053,"lng":121.7320332}},{"name":"百福派出所","address":"基隆市七堵區百福里百六街120號","tel":"0224512156","location":{"lat":25.0854325,"lng":121.6978191}},{"name":"七堵派出所","address":"基隆市七堵區富民里明德一路142號","tel":"0224566947","location":{"lat":25.0983532,"lng":121.7154195}},{"name":"第四分局","address":"基隆市中山區西定路1號","tel":"0224225477","location":{"lat":25.1317183,"lng":121.73532}},{"name":"大武崙派出所","address":"基隆市安樂區基金一路351號","tel":"0224310118","location":{"lat":25.1416229,"lng":121.704939}},{"name":"安樂分駐所","address":"基隆市安樂區麥金路125號","tel":"0224316212","location":{"lat":25.1200837,"lng":121.7222813}},{"name":"安定派出所","address":"基隆市安樂區安一路307號","tel":"0224246946","location":{"lat":25.1325712,"lng":121.7275766}},{"name":"中華路派出所","address":"基隆市中山區通明街2號","tel":"0224246944","location":{"lat":25.1468657,"lng":121.7388815}},{"name":"中山派出所","address":"基隆市中山區西定路1號","tel":"0224242440","location":{"lat":25.1317183,"lng":121.73532}}]