[{"name":"宜蘭縣政府警察局","address":"宜蘭縣宜蘭市中山路2段167號","tel":"039322271","location":{"lat":24.749175,"lng":121.753859}},{"name":"宜蘭分局","address":"宜蘭縣宜蘭市光復路50號","tel":"039359039","location":{"lat":24.7553647,"lng":121.7554871}},{"name":"大湖派出所","address":"宜蘭縣員山鄉大安路120號","tel":"039221995","location":{"lat":24.7364837,"lng":121.6981851}},{"name":"惠好派出所","address":"宜蘭縣員山鄉尚惠路63號","tel":"039221994","location":{"lat":24.7293022,"lng":121.7291496}},{"name":"內城派出所","address":"宜蘭縣員山鄉員山路2段235號","tel":"039221996","location":{"lat":24.7150597,"lng":121.6954027}},{"name":"枕山派出所","address":"宜蘭縣員山鄉永同路3段18號","tel":"039221993","location":{"lat":24.7589487,"lng":121.7187705}},{"name":"員山分駐所","address":"宜蘭縣員山鄉員山路1段205號","tel":"039222015","location":{"lat":24.7452258,"lng":121.7267209}},{"name":"延平派出所","address":"宜蘭縣宜蘭市東港路22號","tel":"039381784","location":{"lat":24.7504821,"lng":121.772922}},{"name":"進士派出所","address":"宜蘭縣宜蘭市縣政北路5號","tel":"039252219","location":{"lat":24.731081,"lng":121.761688}},{"name":"新生派出所","address":"宜蘭縣宜蘭市中山路5段156號","tel":"039284087","location":{"lat":24.7696611,"lng":121.7568375}},{"name":"中山派出所","address":"宜蘭縣宜蘭市中山路3段219號","tel":"039323107","location":{"lat":24.7612715,"lng":121.7534561}},{"name":"新民派出所","address":"宜蘭縣宜蘭市新民路143號","tel":"039323108","location":{"lat":24.7573856,"lng":121.7540182}},{"name":"民族派出所","address":"宜蘭縣宜蘭市三清路33號","tel":"039322223","location":{"lat":24.7559877,"lng":121.7482383}},{"name":"民權派出所","address":"宜蘭縣宜蘭市光復路50號","tel":"039323105","location":{"lat":24.7553647,"lng":121.7554871}},{"name":"三星分局","address":"宜蘭縣三星鄉三星路5段6號","tel":"039891564","location":{"lat":24.6667532,"lng":121.6522631}},{"name":"三星派出所","address":"宜蘭縣三星鄉三星路5段6號","tel":"039892561","location":{"lat":24.6667532,"lng":121.6522631}},{"name":"明池派出所","address":"宜蘭縣大同鄉明池4號","tel":"039801727","location":{"lat":24.6501559,"lng":121.472913}},{"name":"南山派出所","address":"宜蘭縣大同鄉埤南巷6號","tel":"039809175","location":{"lat":24.436766,"lng":121.379414}},{"name":"四季派出所","address":"宜蘭縣大同鄉和勳巷12號","tel":"039809435","location":{"lat":24.4875322,"lng":121.4265958}},{"name":"太平山派出所","address":"宜蘭縣大同鄉太平巷94之2號","tel":"039809802","location":{"lat":24.493412,"lng":121.536604}},{"name":"英士派出所","address":"宜蘭縣大同鄉梵梵72號","tel":"039801325","location":{"lat":24.6133961,"lng":121.52624}},{"name":"福山派出所","address":"宜蘭縣三星鄉三星路7段310號","tel":"039893224","location":{"lat":24.661906,"lng":121.6218}},{"name":"牛鬥派出所","address":"宜蘭縣大同鄉泰雅一路牛鬥巷52號","tel":"039891731","location":{"lat":24.6407974,"lng":121.5696533}},{"name":"大同分駐所","address":"宜蘭縣大同鄉朝陽39號","tel":"039801176","location":{"lat":24.677676,"lng":121.608937}},{"name":"寒溪派出所","address":"宜蘭縣大同鄉寒溪巷65之2號","tel":"039517465","location":{"lat":24.6106361,"lng":121.6887807}},{"name":"大隱派出所","address":"宜蘭縣三星鄉三星路2段350號","tel":"039898910","location":{"lat":24.6674701,"lng":121.70076}},{"name":"大洲派出所","address":"宜蘭縣三星鄉上將路2段468號","tel":"039573517","location":{"lat":24.692992,"lng":121.728869}},{"name":"清水檢查哨","address":"宜蘭縣大同鄉三星路8段501巷7號","tel":"039894520","location":{"lat":24.618133,"lng":121.631812}},{"name":"太平山檢查哨","address":"宜蘭縣大同鄉太平巷94之3號","tel":"039809860","location":{"lat":24.4972255,"lng":121.5353448}},{"name":"礁溪分局","address":"宜蘭縣礁溪鄉中山路2段157號","tel":"039882053","location":{"lat":24.827157,"lng":121.7739415}},{"name":"礁溪派出所","address":"宜蘭縣礁溪鄉中山路2段157號","tel":"039882214","location":{"lat":24.827157,"lng":121.7739415}},{"name":"美城派出所","address":"宜蘭縣壯圍鄉大福路3段38號","tel":"039303691","location":{"lat":24.7774326,"lng":121.7873332}},{"name":"福成派出所","address":"宜蘭縣頭城鎮宜三路2段439號","tel":"039771896","location":{"lat":24.8636769,"lng":121.807074}},{"name":"二城派出所","address":"宜蘭縣頭城鎮青雲路1段145號","tel":"039882654","location":{"lat":24.8388119,"lng":121.7930338}},{"name":"大福派出所","address":"宜蘭縣壯圍鄉壯濱路6段200號","tel":"039301994","location":{"lat":24.8003319,"lng":121.8169013}},{"name":"龍潭派出所","address":"宜蘭縣礁溪鄉大坡路135號","tel":"039285514","location":{"lat":24.778047,"lng":121.742258}},{"name":"四城派出所","address":"宜蘭縣礁溪鄉吳沙村開蘭路110號2樓","tel":"039284072","location":{"lat":24.7898621,"lng":121.758061}},{"name":"頭城分駐所","address":"宜蘭縣頭城鎮開蘭路283號","tel":"039771125","location":{"lat":24.86262,"lng":121.82669}},{"name":"忠孝派出所","address":"宜蘭縣壯圍鄉順和路77號","tel":"039301984","location":{"lat":24.7642443,"lng":121.8032313}},{"name":"壯圍分駐所","address":"宜蘭縣壯圍鄉壯五路158號","tel":"039382162","location":{"lat":24.7463024,"lng":121.7863702}},{"name":"大里派出所","address":"宜蘭縣頭城鎮大里路94號","tel":"039781139","location":{"lat":24.9642014,"lng":121.9214355}},{"name":"三城派出所","address":"宜蘭縣礁溪鄉礁溪路3段195號","tel":"039881961","location":{"lat":24.8101227,"lng":121.7669743}},{"name":"大溪派出所","address":"宜蘭縣頭城鎮濱海路5段187號","tel":"039781205","location":{"lat":24.9414979,"lng":121.900551}},{"name":"羅東分局","address":"宜蘭縣羅東鎮公正路159號","tel":"039542071","location":{"lat":24.6785266,"lng":121.7693454}},{"name":"利澤派出所","address":"宜蘭縣五結鄉利澤路6號","tel":"039503512","location":{"lat":24.6661155,"lng":121.8233949}},{"name":"廣興派出所","address":"宜蘭縣冬山鄉廣興路193號","tel":"039512210","location":{"lat":24.6697448,"lng":121.7492566}},{"name":"二結派出所","address":"宜蘭縣五結鄉西河路1號","tel":"039653901","location":{"lat":24.705825,"lng":121.767522}},{"name":"五結分駐所","address":"宜蘭縣五結鄉五結中路2段98號","tel":"039504381","location":{"lat":24.68752,"lng":121.7978831}},{"name":"順安派出所","address":"宜蘭縣冬山鄉義成路2段394號","tel":"039581804","location":{"lat":24.6545642,"lng":121.7641414}},{"name":"冬山分駐所","address":"宜蘭縣冬山鄉冬山路168號","tel":"039591651","location":{"lat":24.667192,"lng":121.771553}},{"name":"成功派出所","address":"宜蘭縣羅東鎮興東南路46號","tel":"039542471","location":{"lat":24.6695712,"lng":121.7706923}},{"name":"開羅派出所","address":"宜蘭縣羅東鎮南昌東街1號","tel":"039542121","location":{"lat":24.6717611,"lng":121.777356}},{"name":"公正派出所","address":"宜蘭縣羅東鎮公正路159號","tel":"039542029","location":{"lat":24.6785266,"lng":121.7693454}},{"name":"蘇澳分局","address":"宜蘭縣蘇澳鎮中山路1段252號","tel":"039951356","location":{"lat":24.59587,"lng":121.844797}},{"name":"蘇澳派出所","address":"宜蘭縣蘇澳鎮中山路1段252號","tel":"039962126","location":{"lat":24.59587,"lng":121.844797}},{"name":"澳花派出所","address":"宜蘭縣南澳鄉中央路50號","tel":"039985152","location":{"lat":24.329627,"lng":121.739525}},{"name":"武塔派出所","address":"宜蘭縣南澳鄉新溪路5號","tel":"039981902","location":{"lat":24.449398,"lng":121.777231}},{"name":"碧候派出所","address":"宜蘭縣南澳鄉信義路陽明巷78號","tel":"039981903","location":{"lat":24.468471,"lng":121.791214}},{"name":"東澳派出所","address":"宜蘭縣南澳鄉蘇花路3段161號","tel":"039986080","location":{"lat":24.519556,"lng":121.8319873}},{"name":"南澳分駐所","address":"宜蘭縣南澳鄉蘇花路2段373號","tel":"039981120","location":{"lat":24.4657594,"lng":121.803296}},{"name":"南方澳派出所","address":"宜蘭縣蘇澳鎮漁港路84號","tel":"039963580","location":{"lat":24.5823208,"lng":121.8660971}},{"name":"馬賽派出所","address":"宜蘭縣蘇澳鎮隘丁路12號","tel":"039902604","location":{"lat":24.618074,"lng":121.8349651}},{"name":"新城派出所","address":"宜蘭縣蘇澳鎮中山路2段493號","tel":"039969827","location":{"lat":24.6146611,"lng":121.8136166}},{"name":"港邊派出所","address":"宜蘭縣蘇澳鎮蘇濱路1段195號","tel":"039905608","location":{"lat":24.6118381,"lng":121.852487}}]