[{"name":"新竹縣政府警察局","address":"新竹縣竹北市光明六路12號","tel":"035513523","location":{"lat":24.8266874,"lng":121.0111427}},{"name":"竹東分局","address":"新竹縣竹東鎮康寧街93號","tel":"035962081","location":{"lat":24.7372911,"lng":121.086818}},{"name":"竹東派出所","address":"新竹縣竹東鎮康寧街93號","tel":"035962057","location":{"lat":24.7372911,"lng":121.086818}},{"name":"五峰分駐所","address":"新竹縣五峰鄉大隘村6鄰96號","tel":"035851029","location":{"lat":24.6317389,"lng":121.1198271}},{"name":"羅山派出所","address":"新竹縣五峰鄉竹林村1鄰羅山20號","tel":"035851214","location":{"lat":24.6247793,"lng":121.1478556}},{"name":"茅圃派出所","address":"新竹縣五峰鄉大隘村22鄰435號","tel":"035851149","location":{"lat":24.603381,"lng":121.094076}},{"name":"清泉派出所","address":"新竹縣五峰鄉桃山村16鄰清泉277號","tel":"035856045","location":{"lat":24.5734336,"lng":121.1036643}},{"name":"桃山派出所","address":"新竹縣五峰鄉桃山村2鄰桃山20號","tel":"035856043","location":{"lat":24.5965018,"lng":121.1089755}},{"name":"雲山派出所","address":"新竹縣五峰鄉桃山村清泉12鄰202之3號","tel":"035856689","location":{"lat":24.5753,"lng":121.102272}},{"name":"花園派出所","address":"新竹縣五峰鄉花園村5鄰93號","tel":"035851147","location":{"lat":24.6460695,"lng":121.1511382}},{"name":"寶山分駐所","address":"新竹縣寶山鄉雙溪村三峰路2段636號","tel":"035204139","location":{"lat":24.752589,"lng":120.9793704}},{"name":"上坪派出所","address":"新竹縣竹東鎮上坪里7鄰86號","tel":"035961744","location":{"lat":24.6637137,"lng":121.1203437}},{"name":"新城派出所","address":"新竹縣寶山鄉新城村寶新路2段658號","tel":"035762353","location":{"lat":24.7327963,"lng":120.966293}},{"name":"楓橋派出所","address":"新竹縣寶山鄉寶山村新湖路1段415號","tel":"035761140","location":{"lat":24.7336798,"lng":121.0278153}},{"name":"富興派出所","address":"新竹縣峨眉鄉富興村太平街4號","tel":"035806584","location":{"lat":24.6869386,"lng":120.9878944}},{"name":"二重埔派出所","address":"新竹縣竹東鎮中興路3段95號","tel":"035823504","location":{"lat":24.7661855,"lng":121.0569414}},{"name":"北埔分駐所","address":"新竹縣北埔鄉南興村南興街70號","tel":"035802214","location":{"lat":24.6990281,"lng":121.0571229}},{"name":"峨眉分駐所","address":"新竹縣峨眉鄉峨眉村峨嵋街1號","tel":"035800344","location":{"lat":24.6882371,"lng":121.0216081}},{"name":"下公館派出所","address":"新竹縣竹東鎮中豐路1段88號","tel":"035948392","location":{"lat":24.7233815,"lng":121.0985873}},{"name":"竹北分局","address":"新竹縣竹北市博愛街16號","tel":"035552029","location":{"lat":24.8288364,"lng":121.0030729}},{"name":"豐田派出所","address":"新竹縣竹北市中正西路1550號","tel":"035564768","location":{"lat":24.8426972,"lng":120.9641185}},{"name":"鳳岡派出所","address":"新竹縣竹北市鳳岡路3段238號","tel":"035561769","location":{"lat":24.8610313,"lng":120.9634914}},{"name":"六家派出所","address":"新竹縣竹北市自強北路81號","tel":"035680308","location":{"lat":24.82236,"lng":121.0299836}},{"name":"竹北派出所","address":"新竹縣竹北市中華路383號","tel":"035552031","location":{"lat":24.8384417,"lng":121.0050305}},{"name":"三民派出所","address":"新竹縣竹北市三民路345號","tel":"035556270","location":{"lat":24.8335365,"lng":121.0110939}},{"name":"山崎派出所","address":"新竹縣新豐鄉員山村松林街8號","tel":"035592736","location":{"lat":24.8696101,"lng":120.9914837}},{"name":"新豐分駐所","address":"新竹縣新豐鄉重興村建與路2段788號","tel":"035594052","location":{"lat":24.8966144,"lng":120.9905}},{"name":"後湖派出所","address":"新竹縣新豐鄉後湖村6鄰後湖子115號","tel":"035680164","location":{"lat":24.9339628,"lng":121.0134406}},{"name":"湖口分駐所","address":"新竹縣湖口鄉孝勢村中山路2段114號","tel":"035992034","location":{"lat":24.9017053,"lng":121.0437668}},{"name":"湖鏡派出所","address":"新竹縣湖口鄉湖口村八德路2段142巷11號","tel":"035690646","location":{"lat":24.8780787,"lng":121.0588446}},{"name":"新工派出所","address":"新竹縣湖口鄉鳳凰村文化路172號","tel":"035981561","location":{"lat":24.8726933,"lng":121.018162}},{"name":"高鐵派出所","address":"新竹縣竹北市隘口二路175號","tel":"036578272 ","location":{"lat":24.8049872,"lng":121.0383215}},{"name":"橫山分局","address":"新竹縣橫山鄉新興村新興街103號","tel":"035931004","location":{"lat":24.7164782,"lng":121.1414926}},{"name":"橫山派出所","address":"新竹縣橫山鄉新興村新興街103號","tel":"035931002","location":{"lat":24.7164782,"lng":121.1414926}},{"name":"芎林分駐所","address":"新竹縣芎林鄉文山路349號","tel":"035924572","location":{"lat":24.7748841,"lng":121.0809874}},{"name":"秀湖派出所","address":"新竹縣芎林鄉秀湖村五和街5號","tel":"035932812","location":{"lat":24.7340071,"lng":121.1169439}},{"name":"新樂派出所","address":"新竹縣尖石鄉新樂村1鄰水田30號","tel":"035841676","location":{"lat":24.7325088,"lng":121.2512563}},{"name":"橫村派出所","address":"新竹縣橫山鄉橫山村1鄰治安街1號","tel":"035934387","location":{"lat":24.7184825,"lng":121.1179987}},{"name":"玉峰派出所","address":"新竹縣五峰鄉玉峰村5鄰玉峰55號","tel":"035847202","location":{"lat":0,"lng":0}},{"name":"宇老派出所","address":"新竹縣尖石鄉玉峰村1鄰宇老1號","tel":"035847238","location":{"lat":24.5735311,"lng":121.3655989}},{"name":"秀巒派出所","address":"新竹縣尖石鄉秀巒村4鄰控溪20號","tel":"035847523","location":{"lat":24.618444,"lng":121.285208}},{"name":"內灣派出所","address":"新竹縣橫山鄉內灣村4鄰141號","tel":"035849164","location":{"lat":24.706287,"lng":121.1825132}},{"name":"那羅派出所","address":"新竹縣尖石鄉錦屏村8鄰那羅41號","tel":"035841682","location":{"lat":24.6801544,"lng":121.2423188}},{"name":"沙坑派出所","address":"新竹縣橫山鄉沙坑村6鄰中豐路3段10巷1號","tel":"035811054","location":{"lat":24.7367321,"lng":121.1629087}},{"name":"梅花派出所","address":"新竹縣尖石鄉梅花村1鄰梅花26號","tel":"035841681","location":{"lat":24.6782676,"lng":121.208845}},{"name":"尖石分駐所","address":"新竹縣尖石鄉嘉樂村2鄰麥樹仁41號","tel":"035841144","location":{"lat":24.7053955,"lng":121.2012306}},{"name":"嘉樂派出所","address":"新竹縣尖石鄉嘉樂村2鄰麥樹仁41號","tel":"035841144","location":{"lat":24.7053955,"lng":121.2012306}},{"name":"泰崗派出所","address":"新竹縣尖石鄉秀巒村7鄰泰岡88號","tel":"035847322","location":{"lat":24.6138884,"lng":121.2932851}},{"name":"新埔分局","address":"新竹縣新埔鎮中正路475號","tel":"035882004","location":{"lat":24.8277776,"lng":121.0743432}},{"name":"新埔派出所","address":"新竹縣新埔鎮中正路475號","tel":"035882034","location":{"lat":24.8277776,"lng":121.0743432}},{"name":"錦山派出所","address":"新竹縣關西鎮錦山里2鄰21號","tel":"035478174","location":{"lat":24.7719147,"lng":121.2317808}},{"name":"玉山派出所","address":"新竹縣關西鎮錦山里2鄰21號","tel":"035478174","location":{"lat":24.7719147,"lng":121.2317808}},{"name":"東安派出所","address":"新竹縣關西鎮中山東路100號","tel":"035872301","location":{"lat":24.7900977,"lng":121.1822149}},{"name":"南華派出所","address":"新竹縣關西鎮中山東路100號","tel":"035872301","location":{"lat":24.7900977,"lng":121.1822149}},{"name":"關西分駐所","address":"新竹縣關西鎮中正路92號","tel":"035872007","location":{"lat":24.7898763,"lng":121.1766028}},{"name":"褒忠派出所","address":"新竹縣新埔鎮下寮里12鄰義民路3段329號","tel":"035882094","location":{"lat":24.8431449,"lng":121.0359919}},{"name":"寶石派出所","address":"新竹縣新埔鎮寶石里文德路2段599號","tel":"035882064","location":{"lat":24.8163834,"lng":121.0777458}},{"name":"照門派出所","address":"新竹縣新埔鎮照門里9鄰照鏡26號","tel":"035899194","location":{"lat":24.8470147,"lng":121.1155231}},{"name":"石光派出所","address":"新竹縣關西鎮石光里9鄰392號","tel":"035868060","location":{"lat":24.8138181,"lng":121.1283651}},{"name":"坪林派出所","address":"新竹縣關西鎮石光里9鄰392號","tel":"035868060","location":{"lat":24.8138181,"lng":121.1283651}}]