[{"name":"澎湖縣政府警察局","address":"澎湖縣馬公市治平路36號","tel":"069272557","location":{"lat":23.5700101,"lng":119.565929}},{"name":"馬公分局","address":"澎湖縣馬公市新生路201號","tel":"069273284","location":{"lat":23.5703724,"lng":119.5759703}},{"name":"光明派出所","address":"澎湖縣馬公市新生路201號","tel":"069272542","location":{"lat":23.5703724,"lng":119.5759703}},{"name":"啟明派出所","address":"澎湖縣馬公市仁愛路16號","tel":"069272541","location":{"lat":23.565176,"lng":119.5672815}},{"name":"文澳派出所","address":"澎湖縣馬公市東文里5號","tel":"069214622","location":{"lat":23.572261,"lng":119.572093}},{"name":"東衛派出所","address":"澎湖縣馬公市東衛里12號","tel":"069211318","location":{"lat":23.5690056,"lng":119.5994563}},{"name":"鎖港派出所","address":"澎湖縣馬公市鎖港里1481號","tel":"069951024","location":{"lat":23.5249067,"lng":119.597287}},{"name":"虎井派出所","address":"澎湖縣馬公市虎井里75之2號","tel":"069291112","location":{"lat":23.4867415,"lng":119.517752}},{"name":"隘門派出所","address":"澎湖縣湖西鄉隘門村1號","tel":"069210780","location":{"lat":23.5628819,"lng":119.637891}},{"name":"龍門派出所","address":"澎湖縣湖西鄉龍門村119之64號","tel":"069921434","location":{"lat":23.5607434,"lng":119.6748694}},{"name":"湖西分駐所","address":"澎湖縣湖西村77號","tel":"069921022","location":{"lat":23.5696611,"lng":119.5703393}},{"name":"沙港派出所","address":"澎湖縣湖西鄉沙港村138號","tel":"069210779","location":{"lat":23.6021367,"lng":119.622356}},{"name":"白沙分局","address":"澎湖縣白沙鄉後寮村7之9號","tel":"069932849","location":{"lat":23.6671001,"lng":119.583}},{"name":"講美派出所","address":"澎湖縣白沙鄉講美村103號","tel":"069931501","location":{"lat":23.6328171,"lng":119.5981219}},{"name":"白沙派出所","address":"澎湖縣白沙鄉赤崁村135號","tel":"069931071","location":{"lat":23.6667552,"lng":119.6000297}},{"name":"通梁派出所","address":"澎湖縣白沙鄉後寮村7之9號","tel":"069931484","location":{"lat":23.6671001,"lng":119.583}},{"name":"吉貝派出所","address":"澎湖縣白沙鄉吉貝村1號","tel":"069911165","location":{"lat":23.741859,"lng":119.613256}},{"name":"竹灣派出所","address":"澎湖縣西嶼鄉合界村1之9號","tel":"069981701","location":{"lat":23.6364561,"lng":119.5267215}},{"name":"西嶼分駐所","address":"澎湖縣西嶼鄉池東村小池角214號","tel":"069981155","location":{"lat":23.600134,"lng":119.509989}},{"name":"外垵派出所","address":"澎湖縣西嶼鄉外垵村12號","tel":"069981702","location":{"lat":23.566082,"lng":119.48268}},{"name":"望安分局","address":"澎湖縣望安鄉東安村57號","tel":"069991057","location":{"lat":23.3563849,"lng":119.5004483}},{"name":"東垵派出所","address":"澎湖縣望安鄉東安村57號","tel":"069991343","location":{"lat":23.3563849,"lng":119.5004483}},{"name":"嶼坪派出所","address":"澎湖縣望安鄉東嶼坪45號","tel":"069991527","location":{"lat":23.257035,"lng":119.5128126}},{"name":"雙吉派出所","address":"澎湖縣望安鄉東吉村9號","tel":"069991119","location":{"lat":23.3565673,"lng":119.5031719}},{"name":"花嶼派出所","address":"澎湖縣望安鄉花嶼村45之1號","tel":"069991742","location":{"lat":23.4004045,"lng":119.3216738}},{"name":"將軍派出所","address":"澎湖縣望安鄉將軍村160號","tel":"069902112","location":{"lat":0,"lng":0}},{"name":"七美分駐所","address":"澎湖縣七美鄉平和村10號","tel":"069971001","location":{"lat":23.2073946,"lng":119.4222855}}]