[{"name":"臺中市政府警察局","address":"臺中市西屯區文心路2段588號","tel":"0423274440","location":{"lat":24.1596851,"lng":120.6481302}},{"name":"第一分局","address":"臺中市西區三民路1段178號","tel":"0422223725","location":{"lat":24.1385183,"lng":120.6757975}},{"name":"西區分駐所","address":"臺中市西區三民路1段178號","tel":"0422222632","location":{"lat":24.1385183,"lng":120.6757975}},{"name":"公益派出所","address":"臺中市西區精誠二十三街30號","tel":"0424727640","location":{"lat":24.1460497,"lng":120.6565385}},{"name":"民權派出所","address":"臺中市西區民權路258號","tel":"0422012710","location":{"lat":24.146163,"lng":120.6707001}},{"name":"大誠分駐所","address":"臺中市中區成功路302號","tel":"0422221373","location":{"lat":24.1439216,"lng":120.6795203}},{"name":"繼中派出所","address":"臺中市中區中山路9號","tel":"0422224119","location":{"lat":24.1373923,"lng":120.6837027}},{"name":"第二分局","address":"臺中市北區太原路2段228號","tel":"0422351200","location":{"lat":24.164933,"lng":120.6823035}},{"name":"永興派出所","address":"臺中市北區太原路2段228號","tel":"0422352735","location":{"lat":24.164933,"lng":120.6823035}},{"name":"立人派出所","address":"臺中市北區天津路1段2號","tel":"0422973545","location":{"lat":24.1698913,"lng":120.6683897}},{"name":"育才派出所","address":"臺中市北區三民路3段128號","tel":"0422223695","location":{"lat":24.1504927,"lng":120.6844878}},{"name":"文正派出所","address":"臺中市北區中正路440號","tel":"0422011252","location":{"lat":24.146893,"lng":120.6746498}},{"name":"臺中公園派出所","address":"臺中市北區雙十路1段65號","tel":"0422230097","location":{"lat":24.1443145,"lng":120.6857094}},{"name":"第三分局","address":"臺中市南區復興路3段157號","tel":"0422220498","location":{"lat":24.1306175,"lng":120.673427}},{"name":"東區分駐所","address":"臺中市東區進化路16號","tel":"0422124179","location":{"lat":24.1412967,"lng":120.6943886}},{"name":"合作派出所","address":"臺中市東區力行路202號","tel":"0423602711","location":{"lat":24.1517819,"lng":120.6928743}},{"name":"立德派出所","address":"臺中市東區台中路99號","tel":"0422203248","location":{"lat":24.1333371,"lng":120.6836122}},{"name":"勤工派出所","address":"臺中市南區復興路1段235號","tel":"0422612716","location":{"lat":24.1122926,"lng":120.6510056}},{"name":"健康派出所","address":"臺中市南區美村南路8號","tel":"0422634622","location":{"lat":24.1196549,"lng":120.6669809}},{"name":"正義派出所","address":"臺中市南區復興路3段159號","tel":"0422223319","location":{"lat":24.130686,"lng":120.673481}},{"name":"第四分局","address":"臺中市南屯區向心南路811號","tel":"0423892110","location":{"lat":24.1339671,"lng":120.6433797}},{"name":"黎明派出所","address":"臺中市南屯區干城街2號","tel":"0422528219","location":{"lat":24.1558029,"lng":120.6340111}},{"name":"春社派出所","address":"臺中市南屯區忠勇路23之5號","tel":"0423824719","location":{"lat":24.1361846,"lng":120.6116195}},{"name":"南屯派出所","address":"臺中市南屯區黎明路1段1056號","tel":"0423824718","location":{"lat":24.1396244,"lng":120.6382601}},{"name":"大墩派出所","address":"臺中市南屯區大墩路229號","tel":"0424724871","location":{"lat":24.1420524,"lng":120.6497415}},{"name":"第五分局","address":"臺中市北屯區崇德路3段2號","tel":"0422427113","location":{"lat":24.1820492,"lng":120.6864967}},{"name":"文昌派出所","address":"臺中市北屯區文昌東三街48號","tel":"0422377714","location":{"lat":24.1703087,"lng":120.6805951}},{"name":"東山派出所","address":"臺中市北屯區東山路2段30號","tel":"0422392713","location":{"lat":24.1790614,"lng":120.7403303}},{"name":"四平派出所","address":"臺中市北屯區昌平路2段63號","tel":"0424222714","location":{"lat":24.192476,"lng":120.682157}},{"name":"水湳派出所","address":"臺中市北屯區中清路99號","tel":"0422979937","location":{"lat":24.1783027,"lng":120.6681647}},{"name":"北屯派出所","address":"臺中市北屯區北屯路106號","tel":"0422332712","location":{"lat":24.1639008,"lng":120.6937661}},{"name":"松安派出所","address":"臺中市北屯區松竹路2段5號","tel":"0422461750","location":{"lat":24.1823452,"lng":120.6998741}},{"name":"第六分局","address":"臺中市西屯區市政路456號","tel":"0422513284","location":{"lat":24.1594604,"lng":120.6389939}},{"name":"市政派出所","address":"臺中市西屯區市政路456號","tel":"0422513312","location":{"lat":24.1594604,"lng":120.6389939}},{"name":"西屯派出所","address":"臺中市西屯區西屯路3段40號","tel":"0427012717","location":{"lat":24.1810433,"lng":120.63792}},{"name":"何安派出所","address":"臺中市西屯區甘肅路106號","tel":"0423149343","location":{"lat":24.166196,"lng":120.6590376}},{"name":"協和派出所","address":"臺中市西屯區臺灣大道4段1347號","tel":"0423593736","location":{"lat":24.1838726,"lng":120.608746}},{"name":"工業區派出所","address":"臺中市西屯區工業五路2之1號","tel":"0423596317","location":{"lat":24.1690782,"lng":120.6082629}},{"name":"永福派出所","address":"臺中市西屯區福科路372號","tel":"0424613009","location":{"lat":24.1844478,"lng":120.619628}},{"name":"大甲分局","address":"臺中市大甲區文武路1號","tel":"0426872039","location":{"lat":24.345283,"lng":120.626886}},{"name":"大甲派出所","address":"臺中市大甲區大甲里文武路1號","tel":"0426872047","location":{"lat":24.345283,"lng":120.626886}},{"name":"安定派出所","address":"臺中市外埔區土城路110號","tel":"0426831522","location":{"lat":24.3450382,"lng":120.7045208}},{"name":"日南派出所","address":"臺中市大甲區中山路2段165號","tel":"0426813700","location":{"lat":24.37929,"lng":120.653527}},{"name":"月眉派出所","address":"臺中市后里區三月路19號","tel":"0425562384","location":{"lat":24.3110796,"lng":120.6910432}},{"name":"西岐派出所","address":"臺中市大甲區順帆路94號","tel":"0426811320","location":{"lat":24.420018,"lng":120.6288327}},{"name":"泰安派出所","address":"臺中市后里區安眉路1號","tel":"0425562340","location":{"lat":24.3216214,"lng":120.700135}},{"name":"海墘派出所","address":"臺中市大安區大安港路1160號","tel":"0426875845","location":{"lat":24.3793362,"lng":120.5862117}},{"name":"義里派出所","address":"臺中市后里區三豐路209號","tel":"0425562333","location":{"lat":24.255075,"lng":120.718002}},{"name":"后里分駐所","address":"臺中市后里區公安路88號","tel":"0425562037","location":{"lat":24.3040647,"lng":120.7124699}},{"name":"外埔分駐所","address":"臺中市外埔區六分路350號","tel":"0426832690","location":{"lat":24.3322341,"lng":120.6556066}},{"name":"大安分駐所","address":"臺中市大安區中山南路300號","tel":"0426713320","location":{"lat":24.3455879,"lng":120.5871041}},{"name":"和平分局","address":"臺中市和平區東關路3段154號","tel":"0425942560","location":{"lat":24.1745642,"lng":120.8820571}},{"name":"天輪派出所","address":"臺中市和平區東關路2段33號","tel":"0425941193","location":{"lat":24.1823256,"lng":120.9255821}},{"name":"德基派出所","address":"臺中市和平區和平路2段16之1號","tel":"0425980439","location":{"lat":24.1812189,"lng":120.9115391}},{"name":"環山派出所","address":"臺中市和平區中興路3段48號","tel":"0425802242","location":{"lat":24.3127062,"lng":121.2935983}},{"name":"雙崎派出所","address":"臺中市和平區東崎路2段39號","tel":"0425911214","location":{"lat":24.2921846,"lng":120.911058}},{"name":"桃山派出所","address":"臺中市和平區東崎路1段桃山巷7之2號","tel":"0425911314","location":{"lat":24.340028,"lng":120.9357729}},{"name":"大棟派出所","address":"臺中市和平區雪山路2號","tel":"0425971106","location":{"lat":24.2436434,"lng":120.9220009}},{"name":"勝光派出所","address":"臺中市和平區平等村中興路1段21號","tel":"0425901004","location":{"lat":24.2550933,"lng":121.2459537}},{"name":"志良派出所","address":"臺中市和平區中興路2段47號","tel":"0425901040","location":{"lat":24.3384399,"lng":121.313614}},{"name":"竹林派出所","address":"臺中市和平區東崎路1段89號","tel":"0425911114","location":{"lat":24.3050924,"lng":120.9245576}},{"name":"梨山分駐所","address":"臺中市和平區中正路103號","tel":"0425989580","location":{"lat":24.2540832,"lng":121.2530766}},{"name":"松茂派出所","address":"臺中市和平區中興路2段54號","tel":"0425989692","location":{"lat":24.3384399,"lng":121.313614}},{"name":"和平派出所","address":"臺中市和平區東關路3段270號","tel":"0425941324","location":{"lat":24.1745642,"lng":120.8820571}},{"name":"谷關派出所","address":"臺中市和平區博愛村東關路1段125號","tel":"0425951114","location":{"lat":24.2000822,"lng":121.0008143}},{"name":"雪山派出所","address":"臺中市和平區雪山路10號","tel":"0425883514","location":{"lat":24.2436434,"lng":120.9220009}},{"name":"烏日分局","address":"臺中市烏日區中山路3段309號","tel":"0423369595","location":{"lat":24.1083925,"lng":120.6071264}},{"name":"烏日派出所","address":"臺中市烏日區中山路2段309號","tel":"0423381448","location":{"lat":24.106375,"lng":120.622468}},{"name":"龍津派出所","address":"臺中市龍井區中央路1段165巷36號","tel":"0426396084","location":{"lat":24.2006306,"lng":120.523464}},{"name":"五光派出所","address":"臺中市烏日區五光路281號","tel":"0423381960","location":{"lat":24.0934885,"lng":120.649246}},{"name":"龍井分駐所","address":"臺中市龍井區沙田路4段245號","tel":"0426353054","location":{"lat":24.1926784,"lng":120.5460288}},{"name":"溪南派出所","address":"臺中市烏日區溪南路2段638號","tel":"0423351676","location":{"lat":24.0617051,"lng":120.6433533}},{"name":"龍東派出所","address":"臺中市龍井區茄投路67號","tel":"0426397043","location":{"lat":24.1784,"lng":120.5304602}},{"name":"麗水派出所","address":"臺中市龍井區臨港東路2段317號","tel":"0426395994","location":{"lat":24.1973212,"lng":120.5189103}},{"name":"犁份派出所","address":"臺中市龍井區遊園南路194號","tel":"0426312719","location":{"lat":24.182428,"lng":120.584242}},{"name":"追分派出所","address":"臺中市大肚區沙田路1段290號","tel":"0426932108","location":{"lat":24.1211616,"lng":120.5703129}},{"name":"大肚分駐所","address":"臺中市大肚區沙田路3段38號","tel":"0426992167","location":{"lat":24.1549461,"lng":120.5443928}},{"name":"瑞井派出所","address":"臺中市大肚區遊園路1段1之1號","tel":"0426910205-6","location":{"lat":24.1676368,"lng":120.5778285}},{"name":"東勢分局","address":"臺中市東勢區豐勢路512號","tel":"0423302139","location":{"lat":24.2583553,"lng":120.8280348}},{"name":"東勢派出所","address":"臺中市東勢區豐勢路512號","tel":"0425873802","location":{"lat":24.2583553,"lng":120.8280348}},{"name":"茅埔派出所","address":"臺中市東勢區東關路243號","tel":"0425852472","location":{"lat":24.201449,"lng":120.8397981}},{"name":"東興派出所","address":"臺中市新社區興社街1段285號","tel":"0425811476","location":{"lat":24.2069213,"lng":120.8214488}},{"name":"土牛派出所","address":"臺中市石岡區豐勢路19號","tel":"0425817493","location":{"lat":24.260112,"lng":120.8165482}},{"name":"中坑派出所","address":"臺中市東勢區東坑路665號","tel":"0425874474","location":{"lat":24.2362208,"lng":120.8542901}},{"name":"永源派出所","address":"臺中市新社區中和街1段20號","tel":"0425811475","location":{"lat":24.1926912,"lng":120.8210609}},{"name":"石城派出所","address":"臺中市東勢區石城街297號","tel":"0425874473","location":{"lat":24.2851175,"lng":120.7891552}},{"name":"福中派出所","address":"臺中市新社區美林45號","tel":"0425941364","location":{"lat":24.1692143,"lng":120.8315088}},{"name":"石岡分駐所","address":"臺中市石岡區豐勢路1021號","tel":"0425722781","location":{"lat":24.2749791,"lng":120.7805273}},{"name":"新社分駐所","address":"臺中市新社區興社街2段28之3號","tel":"0425811401","location":{"lat":24.2173787,"lng":120.8161154}},{"name":"清水分局","address":"臺中市清水區鰲峰路23號","tel":"0426222022","location":{"lat":24.269288,"lng":120.574064}},{"name":"清水派出所","address":"臺中市清水區螯峰路23號","tel":"0426222054","location":{"lat":24.269288,"lng":120.574064}},{"name":"大楊派出所","address":"臺中市清水區神清路46號","tel":"0426202409","location":{"lat":24.2732369,"lng":120.6310724}},{"name":"大秀派出所","address":"臺中市清水區五權路438號","tel":"0426265404","location":{"lat":24.2802586,"lng":120.5536837}},{"name":"安寧派出所","address":"臺中市梧棲區中棲路2段18號","tel":"0426560343","location":{"lat":24.25002,"lng":120.5368461}},{"name":"高美派出所","address":"臺中市清水區護岸路29號","tel":"0426275672","location":{"lat":24.3113596,"lng":120.5625434}},{"name":"明秀派出所","address":"臺中市沙鹿區鎮南路1段450號","tel":"0426314309","location":{"lat":24.2159545,"lng":120.571229}},{"name":"光華派出所","address":"臺中市沙鹿區光華路387號","tel":"0426630624","location":{"lat":24.2442285,"lng":120.5677354}},{"name":"清泉派出所","address":"臺中市沙鹿區中清路2之39號","tel":"0426153884","location":{"lat":24.2460592,"lng":120.6099189}},{"name":"梧棲分駐所","address":"臺中市梧棲區中興路210號","tel":"0426562860","location":{"lat":24.25485,"lng":120.533783}},{"name":"沙鹿分駐所","address":"臺中市沙鹿區鎮政路12號","tel":"0426625032","location":{"lat":24.2345527,"lng":120.5662618}},{"name":"三田派出所","address":"臺中市清水區中山路559號","tel":"0426222146","location":{"lat":24.2963069,"lng":120.5911442}},{"name":"豐原分局","address":"臺中市豐原區葫蘆里中山路225號","tel":"0425224684","location":{"lat":24.2436442,"lng":120.7135921}},{"name":"豐洲派出所","address":"臺中市豐原區豐洲里豐洲路489號","tel":"0425272585","location":{"lat":24.2573122,"lng":120.713506}},{"name":"頭家派出所","address":"臺中市潭子區中山路1段150號","tel":"0425353818","location":{"lat":24.1904848,"lng":120.7025124}},{"name":"潭北派出所","address":"臺中市潭子區潭子街3段56號","tel":"0425361651","location":{"lat":24.2164551,"lng":120.7059215}},{"name":"合作派出所","address":"臺中市豐原區育英路52號","tel":"0425293134","location":{"lat":24.2429277,"lng":120.7160477}},{"name":"馬岡派出所","address":"臺中市大雅區雅潭路150號","tel":"0425662064","location":{"lat":24.2159083,"lng":120.6807937}},{"name":"豐東派出所","address":"臺中市豐原區豐東路162號","tel":"0425286917","location":{"lat":24.2485785,"lng":120.7305279}},{"name":"社口派出所","address":"臺中市神岡區中正路516號","tel":"0425625392","location":{"lat":24.250435,"lng":120.708389}},{"name":"翁子派出所","address":"臺中市豐原區北陽三街93號","tel":"0425226021","location":{"lat":24.2532723,"lng":120.734127}},{"name":"神岡分駐所","address":"臺中市神岡區神岡路121號","tel":"0425622422","location":{"lat":24.257625,"lng":120.661094}},{"name":"大雅分駐所","address":"臺中市大雅區中清路2段172號","tel":"0425662054","location":{"lat":24.2229984,"lng":120.6480125}},{"name":"潭子分駐所","address":"臺中市潭子區中山路2段241巷3號","tel":"0425348866","location":{"lat":24.2098958,"lng":120.7047373}},{"name":"頂街派出所","address":"臺中市豐原區東北街1-1號","tel":"0420228150","location":{"lat":24.254863,"lng":120.723011}},{"name":"豐原派出所","address":"臺中市豐原區中山路508號","tel":"0425228941","location":{"lat":24.250737,"lng":120.7146406}},{"name":"霧峰分局","address":"臺中市霧峰區中正路1236號","tel":"0423302139","location":{"lat":24.0748583,"lng":120.6999866}},{"name":"國光派出所","address":"臺中市大里區永大街5號","tel":"0424180232","location":{"lat":24.1101005,"lng":120.6787412}},{"name":"十九甲派出所","address":"臺中市大里區立元路115號","tel":"0422706613","location":{"lat":24.1023925,"lng":120.7001828}},{"name":"霧峰派出所","address":"臺中市霧峰區民權街37號","tel":"0423393013","location":{"lat":24.0667029,"lng":120.6999348}},{"name":"萬豐派出所","address":"臺中市霧峰區中正路161號","tel":"0423302873","location":{"lat":24.0261818,"lng":120.6967636}},{"name":"大里分駐所","address":"臺中市大里區新興路5號","tel":"0424060634","location":{"lat":24.0979896,"lng":120.6768886}},{"name":"吉峰派出所","address":"臺中市霧峰區中正路1236號","tel":"0423334342","location":{"lat":24.0748583,"lng":120.6999866}},{"name":"內新派出所","address":"臺中市大里區中興路2段598號","tel":"0424875584","location":{"lat":24.1151459,"lng":120.6897953}},{"name":"成功派出所","address":"臺中市大里區成功路9號","tel":"0424969293","location":{"lat":24.0846914,"lng":120.6977338}},{"name":"仁化派出所","address":"臺中市大里區仁化路198號","tel":"0424952010","location":{"lat":24.0946021,"lng":120.7154951}},{"name":"四德派出所","address":"臺中市霧峰區四德路541號","tel":"0423398281","location":{"lat":24.0603792,"lng":120.6664643}},{"name":"太平分局","address":"臺中市太平區中山路1段215號","tel":"0423938100","location":{"lat":24.1422514,"lng":120.7325132}},{"name":"太平派出所","address":"臺中市太平區中興東路21號","tel":"0422780418","location":{"lat":24.1299227,"lng":120.7195078}},{"name":"新平派出所","address":"臺中市太平區新平路3段72號","tel":"0423912446","location":{"lat":24.1505022,"lng":120.7203231}},{"name":"宏龍派出所","address":"臺中市太平區光興路900號","tel":"0422702700","location":{"lat":24.1094601,"lng":120.7301257}},{"name":"頭汴派出所","address":"臺中市太平區長龍路2段11巷2號","tel":"0422704962","location":{"lat":24.1236303,"lng":120.7505485}},{"name":"坪林派出所","address":"臺中市太平區中山路1段215號","tel":"0423937396","location":{"lat":24.1422514,"lng":120.7325132}}]