[{"name":"臺東縣警察局","address":"臺東縣臺東市中山路268號","tel":"089324534","location":{"lat":22.7560001,"lng":121.1513175}},{"name":"臺東分局","address":"臺東縣臺東市博愛路373號","tel":"089322306","location":{"lat":22.7544034,"lng":121.1460349}},{"name":"中興派出所","address":"臺東縣臺東市博愛路373號","tel":"089322127","location":{"lat":22.7544034,"lng":121.1460349}},{"name":"公館派出所","address":"臺東縣綠島鄉公館村69號","tel":"089672564","location":{"lat":22.6662623,"lng":121.4970294}},{"name":"建蘭派出所","address":"臺東縣蘭嶼鄉紅頭村50號","tel":"089732650","location":{"lat":22.02554,"lng":121.5524959}},{"name":"東清派出所","address":"臺東縣蘭嶼鄉東清村3號","tel":"089732975","location":{"lat":22.0572965,"lng":121.5649618}},{"name":"朗島派出所","address":"臺東縣蘭嶼鄉朗島村13號","tel":"089732131","location":{"lat":22.078808,"lng":121.5295143}},{"name":"寶桑派出所","address":"臺東縣臺東市中華路1段276號","tel":"089322126","location":{"lat":22.7560004,"lng":121.1548638}},{"name":"南王派出所","address":"臺東縣臺東市更生北路624號","tel":"089223817","location":{"lat":22.7848967,"lng":121.1164479}},{"name":"馬蘭派出所","address":"臺東縣臺東市更生路678號","tel":"089226492","location":{"lat":22.7661918,"lng":121.138118}},{"name":"豐里派出所","address":"臺東縣臺東市中華路3段126號","tel":"089327815","location":{"lat":22.736266,"lng":121.121626}},{"name":"綠島分駐所","address":"臺東縣綠島鄉南寮村南寮158號","tel":"089672521","location":{"lat":22.6560719,"lng":121.4827508}},{"name":"富岡派出所","address":"臺東縣臺東市松江路1段431號","tel":"089281040","location":{"lat":22.7954224,"lng":121.1948659}},{"name":"卑南分駐所","address":"臺東縣卑南鄉賓朗村賓朗路440號","tel":"089223820","location":{"lat":22.8066598,"lng":121.0929101}},{"name":"知本派出所","address":"臺東縣臺東市大和路11號","tel":"089512614","location":{"lat":22.7059733,"lng":121.0572202}},{"name":"初鹿派出所","address":"臺東縣卑南鄉初鹿村梅園路83號","tel":"089571126","location":{"lat":22.8609622,"lng":121.0922259}},{"name":"東興派出所","address":"臺東縣臺東市中興路6段796號","tel":"089381714","location":{"lat":22.7626665,"lng":121.0497392}},{"name":"利嘉派出所","address":"臺東縣卑南鄉利嘉村利嘉路617號","tel":"089382819","location":{"lat":22.7748494,"lng":121.0651943}},{"name":"永樂派出所","address":"臺東縣臺東市正氣北路915號","tel":"089227818","location":{"lat":22.7585752,"lng":121.1234905}},{"name":"溫泉派出所","address":"臺東縣臺東市青海路4段343號","tel":"089512379","location":{"lat":22.7090029,"lng":121.0419295}},{"name":"蘭嶼分駐所","address":"臺東縣蘭嶼鄉椰油村椰油31號","tel":"089732011","location":{"lat":22.0497576,"lng":121.5123571}},{"name":"大武分局","address":"臺東縣大武鄉大武村大武街52號","tel":"089791001","location":{"lat":22.358101,"lng":120.905663}},{"name":"達仁分駐所","address":"臺東縣達仁鄉安朔村復興路100號","tel":"089702247","location":{"lat":22.2947907,"lng":120.8842733}},{"name":"南田派出所","address":"臺東縣達仁鄉安朔村復興路100號","tel":"089702247","location":{"lat":22.2947907,"lng":120.8842733}},{"name":"土坂派出所","address":"臺東縣達仁鄉土阪村107號","tel":"089761027","location":{"lat":22.3,"lng":120.883333}},{"name":"新化派出所","address":"臺東縣達仁鄉新化村1號","tel":"089791749","location":{"lat":22.3798987,"lng":120.8585789}},{"name":"金峰分駐所","address":"臺東縣金峰鄉嘉蘭村30號","tel":"089751204","location":{"lat":22.5945109,"lng":120.96259}},{"name":"正興派出所","address":"臺東縣金峰鄉正興村51號","tel":"089781364","location":{"lat":22.6046937,"lng":120.9970502}},{"name":"台坂派出所","address":"臺東縣達仁鄉台阪村1鄰13之2號","tel":"089761047","location":{"lat":22.467714,"lng":120.9147821}},{"name":"大武派出所","address":"臺東縣大武鄉大武村大武街52號","tel":"089791125","location":{"lat":22.358101,"lng":120.905663}},{"name":"森永派出所","address":"臺東縣達仁鄉森永村森永6號","tel":"089702297","location":{"lat":22.2780468,"lng":120.8645881}},{"name":"太麻里分駐所","address":"臺東縣太麻里鄉泰和村太麻里街142號","tel":"089781134","location":{"lat":22.6103232,"lng":121.0049535}},{"name":"尚武派出所","address":"臺東縣大武鄉尚武村客庄11號","tel":"089791105","location":{"lat":22.340809,"lng":120.893105}},{"name":"多良派出所","address":"臺東縣太麻里鄉多良村大溪262號","tel":"089761368","location":{"lat":22.4627771,"lng":120.9423259}},{"name":"金崙派出所","address":"臺東縣太麻里鄉金崙村金崙439號","tel":"089771086","location":{"lat":22.5333256,"lng":120.9633015}},{"name":"美和派出所","address":"臺東縣太麻里鄉美和村美和84之1號","tel":"089512542","location":{"lat":22.68452,"lng":121.0433644}},{"name":"成功分局","address":"臺東縣成功鎮公民路87號","tel":"089851001","location":{"lat":23.0992626,"lng":121.3750684}},{"name":"忠孝派出所","address":"臺東縣成功鎮成廣路9號","tel":"089871444","location":{"lat":23.1584669,"lng":121.400549}},{"name":"都歷派出所","address":"臺東縣成功鎮都歷路46號","tel":"089841290","location":{"lat":23.0253821,"lng":121.330391}},{"name":"東河分駐所","address":"臺東縣東河鄉東河村南東河368號","tel":"089896010","location":{"lat":22.9700934,"lng":121.3041733}},{"name":"竹湖派出所","address":"臺東縣長濱鄉寧埔村7號","tel":"089801257","location":{"lat":23.2558863,"lng":121.418789}},{"name":"寧埔派出所","address":"臺東縣長濱鄉寧埔村7號","tel":"089801257","location":{"lat":23.2558863,"lng":121.418789}},{"name":"都蘭派出所","address":"臺東縣東河鄉都蘭村248號","tel":"089531209","location":{"lat":22.8757741,"lng":121.2289203}},{"name":"泰源派出所","address":"臺東縣東河鄉泰源村本部落281號","tel":"089891014","location":{"lat":22.9977903,"lng":121.2856349}},{"name":"新豐派出所","address":"臺東縣成功鎮公民路87號","tel":"089851054","location":{"lat":23.0992626,"lng":121.3750684}},{"name":"長濱分駐所","address":"臺東縣長濱鄉長濱村41號","tel":"089831034","location":{"lat":23.3165108,"lng":121.4542176}},{"name":"樟原派出所","address":"臺東縣長濱鄉樟原村10號","tel":"089881027","location":{"lat":23.4129373,"lng":121.4826489}},{"name":"三間派出所","address":"臺東縣長濱鄉樟原村10號","tel":"089881027","location":{"lat":23.4129373,"lng":121.4826489}},{"name":"關山分局","address":"臺東縣關山鎮中正路27號","tel":"089811001","location":{"lat":23.0480227,"lng":121.160723}},{"name":"武陵派出所","address":"臺東縣延平鄉武陵村明野路10號","tel":"089551164","location":{"lat":22.970273,"lng":121.1177396}},{"name":"延平分駐所","address":"臺東縣延平鄉桃源村74號","tel":"089561245","location":{"lat":22.9037569,"lng":121.0819369}},{"name":"鸞山派出所","address":"臺東縣延平鄉鸞山村19號","tel":"089568079","location":{"lat":22.8993275,"lng":121.15208}},{"name":"崁頂派出所","address":"臺東縣海端鄉坎頂村中福路25號","tel":"089811418","location":{"lat":23.1028073,"lng":121.03351}},{"name":"瑞源派出所","address":"臺東縣鹿野鄉瑞源村文化路8號","tel":"089581134","location":{"lat":22.9571952,"lng":121.1586082}},{"name":"瑞豐派出所","address":"臺東縣鹿野鄉瑞豐村中山路61號","tel":"089811419","location":{"lat":22.978264,"lng":121.1370229}},{"name":"龍泉派出所","address":"臺東縣海端鄉廣原村龍泉路1號","tel":"089861344","location":{"lat":23.1580036,"lng":121.1909118}},{"name":"錦安派出所","address":"臺東縣池上鄉萬安村萬安路12號","tel":"089862344","location":{"lat":23.094446,"lng":121.218253}},{"name":"利稻派出所","address":"臺東縣海端鄉利稻村文化路2號","tel":"089938064","location":{"lat":23.1818188,"lng":120.9646866}},{"name":"向陽派出所","address":"臺東縣海端鄉利稻村向陽路1號","tel":"0988095763","location":{"lat":23.24774,"lng":120.986637}},{"name":"關山派出所","address":"臺東縣關山鎮中福里中正路27號","tel":"089811284","location":{"lat":23.0480227,"lng":121.160723}},{"name":"霧鹿派出所","address":"臺東縣海端鄉霧鹿村霧鹿村1號","tel":"089935024","location":{"lat":23.1733004,"lng":121.0416238}},{"name":"池上分駐所","address":"臺東縣池上鄉中山路211號","tel":"089862004","location":{"lat":23.1247092,"lng":121.2185922}},{"name":"海端分駐所","address":"臺東縣海端鄉山界路17號","tel":"089931354","location":{"lat":23.1003196,"lng":121.1766853}},{"name":"鹿野分駐所","address":"臺東縣鹿野鄉中華路59號","tel":"089551114","location":{"lat":22.912429,"lng":121.13589}},{"name":"電光派出所","address":"臺東縣關山鎮電光里中興路42號","tel":"089951041","location":{"lat":23.0131591,"lng":121.1892538}},{"name":"紅葉派出所","address":"臺東縣延平鄉紅葉村9號","tel":"089561146","location":{"lat":22.885525,"lng":121.065536}},{"name":"初來派出所","address":"臺東縣海端鄉海端村初來路70號","tel":"089931004","location":{"lat":23.1179573,"lng":121.1669521}}]