[{"name":"高雄市政府警察局","address":"高雄市前金區中正四路260號","tel":"072155555","location":{"lat":22.6278833,"lng":120.2906019}},{"name":"三民第一分局","address":"高雄市三民區同盟一路367號","tel":"073118675","location":{"lat":22.651846,"lng":120.3047964}},{"name":"哈爾濱街派出所","address":"高雄市三民區哈爾濱街118號","tel":"073110785","location":{"lat":22.644347,"lng":120.299967}},{"name":"十全路派出所","address":"高雄市三民區十全一路86號","tel":"073115807","location":{"lat":22.6450211,"lng":120.3115597}},{"name":"三民派出所","address":"高雄市三民區建國三路188號","tel":"072211460","location":{"lat":22.6369871,"lng":120.2926901}},{"name":"長明派出所","address":"高雄市三民區南華路253號","tel":"072355098","location":{"lat":22.6384387,"lng":120.3037013}},{"name":"前鎮分局","address":"高雄市前鎮區一心一路286號","tel":"077242372","location":{"lat":22.608119,"lng":120.3183311}},{"name":"瑞隆路派出所","address":"高雄市前鎮區班超路49號","tel":"078221183","location":{"lat":22.5998041,"lng":120.3259296}},{"name":"草衙派出所","address":"高雄市前鎮區鎮中路150號","tel":"078213705","location":{"lat":22.5862903,"lng":120.3193234}},{"name":"前鎮街派出所","address":"高雄市前鎮區前鎮街260號","tel":"078310309","location":{"lat":22.5914958,"lng":120.3082535}},{"name":"一心路派出所","address":"高雄市前鎮區一心一路286號","tel":"077264661","location":{"lat":22.608119,"lng":120.3183311}},{"name":"復興路派出所","address":"高雄市前鎮區復興三路96號","tel":"073342434","location":{"lat":22.610032,"lng":120.310159}},{"name":"左營分局","address":"高雄市左營區進學路1號","tel":"075820032","location":{"lat":22.6906019,"lng":120.2954142}},{"name":"博愛四路派出所","address":"高雄市左營區博愛四路437號","tel":"073487976","location":{"lat":22.6885258,"lng":120.3173456}},{"name":"四海派出所","address":"高雄市左營區明建里自治新村221之3號","tel":"075811544","location":{"lat":22.695011,"lng":120.288083}},{"name":"新莊派出所","address":"高雄市左營區富民路435號","tel":"075562630","location":{"lat":22.668072,"lng":120.305659}},{"name":"啟文派出所","address":"高雄市左營區中華一路2號","tel":"075882999","location":{"lat":22.67162,"lng":120.286277}},{"name":"舊城派出所","address":"高雄市左營區左營大路101號","tel":"075853036","location":{"lat":22.6829296,"lng":120.2883949}},{"name":"左營派出所","address":"高雄市左營區進學路1號","tel":"075813019","location":{"lat":22.6906019,"lng":120.2954142}},{"name":"文自派出所","address":"高雄市左營區文自路21號","tel":"073501311","location":{"lat":22.672293,"lng":120.305213}},{"name":"小港分局","address":"高雄市小港區小港路20號","tel":"078019207","location":{"lat":22.5658698,"lng":120.3450278}},{"name":"漢民路派出所","address":"高雄市小港區宏平路367號","tel":"078064590","location":{"lat":22.569623,"lng":120.35952}},{"name":"大林派出所","address":"高雄市小港區鳳林路116號","tel":"078712237","location":{"lat":22.5269914,"lng":120.3460572}},{"name":"高松派出所","address":"高雄市小港區高松路25號","tel":"078010795","location":{"lat":22.5724931,"lng":120.3724499}},{"name":"小港派出所","address":"高雄市小港區平和南路119號","tel":"078215913","location":{"lat":22.5630626,"lng":120.336066}},{"name":"桂陽派出所","address":"高雄市小港區桂陽路338號","tel":"077912688","location":{"lat":22.5822339,"lng":120.3515039}},{"name":"新興分局","address":"高雄市新興區中山一路100號","tel":"072212057","location":{"lat":22.6307222,"lng":120.3022568}},{"name":"五福二路派出所","address":"高雄市新興區五福二路222號","tel":"072316481","location":{"lat":22.6239605,"lng":120.303018}},{"name":"中正三路派出所","address":"高雄市新興區中正三路3號","tel":"072270189","location":{"lat":22.6305253,"lng":120.3114238}},{"name":"中山路派出所","address":"高雄市新興區中山一路100號","tel":"072211209","location":{"lat":22.6307222,"lng":120.3022568}},{"name":"自強路派出所","address":"高雄市前金區自強二路63號","tel":"072910188","location":{"lat":22.623915,"lng":120.295748}},{"name":"前金分駐所","address":"高雄市前金區中正四路174號","tel":"072212901","location":{"lat":22.629148,"lng":120.294597}},{"name":"苓雅分局","address":"高雄市苓雅區苓雅一路367號","tel":"073353760","location":{"lat":22.618459,"lng":120.303563}},{"name":"福德二路派出所","address":"高雄市苓雅區福德二路77號","tel":"077233343","location":{"lat":22.6323069,"lng":120.327992}},{"name":"凱旋路派出所","address":"高雄市苓雅區凱旋二路145號","tel":"072236222","location":{"lat":22.6292796,"lng":120.3217815}},{"name":"三多路派出所","address":"高雄市苓雅區三多一路168號","tel":"077615655","location":{"lat":22.6225047,"lng":120.3302151}},{"name":"民權路派出所","address":"高雄市苓雅區四維二路369號","tel":"073333631","location":{"lat":22.6200733,"lng":120.3136939}},{"name":"成功路派出所","address":"高雄市苓雅區成功一路136號","tel":"073334793","location":{"lat":22.6148506,"lng":120.2976396}},{"name":"鹽埕分局","address":"高雄市鹽埕區建國四路337號","tel":"075513424","location":{"lat":22.631193,"lng":120.283155}},{"name":"建國四路派出所","address":"高雄市鹽埕區建國四路337號","tel":"075512832","location":{"lat":22.631193,"lng":120.283155}},{"name":"五福四路派出所","address":"高雄市鹽埕區五福四路107號","tel":"075512968","location":{"lat":22.6226048,"lng":120.2852189}},{"name":"七賢路派出所","address":"高雄市鹽埕區七賢三路170號","tel":"075513534","location":{"lat":22.6273296,"lng":120.2829959}},{"name":"鼓山分局","address":"高雄市鼓山區鼓山一路105號","tel":"075514005","location":{"lat":22.6266818,"lng":120.2781988}},{"name":"中洲派出所","address":"高雄市旗津區中洲二路66號","tel":"075712328","location":{"lat":22.5747514,"lng":120.2976838}},{"name":"旗津分駐所","address":"高雄市旗津區廟前路137號","tel":"075715492","location":{"lat":22.614096,"lng":120.2691298}},{"name":"新濱派出所","address":"高雄市鼓山區臨海三路2號","tel":"075514863","location":{"lat":22.6224061,"lng":120.2752947}},{"name":"鼓山派出所","address":"高雄市鼓山區鼓山二路81號","tel":"075512673","location":{"lat":22.6347096,"lng":120.282432}},{"name":"內惟派出所","address":"高雄市鼓山區九如四路1139號","tel":"075826970","location":{"lat":22.6595215,"lng":120.2793501}},{"name":"龍華派出所","address":"高雄市鼓山區中華一路301號","tel":"075551802","location":{"lat":22.6604716,"lng":120.2928481}},{"name":"楠梓分局","address":"高雄市楠梓區外環西路119號","tel":"073653190","location":{"lat":22.717956,"lng":120.3000202}},{"name":"翠屏派出所","address":"高雄市楠梓區德祥路147號","tel":"073649783","location":{"lat":22.7266144,"lng":120.3093659}},{"name":"楠梓派出所","address":"高雄市楠梓區旗楠路160號","tel":"073511145","location":{"lat":22.733577,"lng":120.33319}},{"name":"後勁派出所","address":"高雄市楠梓區後昌路214號","tel":"073612554","location":{"lat":22.7155517,"lng":120.3093087}},{"name":"右昌派出所","address":"高雄市楠梓區右昌街250號","tel":"073612977","location":{"lat":22.7123523,"lng":120.2895241}},{"name":"加昌派出所","address":"高雄市楠梓區外環西路119號","tel":"073655961","location":{"lat":22.717956,"lng":120.3000202}},{"name":"三民第二分局","address":"高雄市三民區覺民路366號","tel":"073814093","location":{"lat":22.6407684,"lng":120.3337458}},{"name":"鼎山派出所","address":"高雄市三民區鼎山街260號","tel":"073907880","location":{"lat":22.6592001,"lng":120.3217968}},{"name":"陽明派出所","address":"高雄市三民區義華路272號","tel":"073922032","location":{"lat":22.6435333,"lng":120.3377438}},{"name":"鼎金派出所","address":"高雄市三民區鼎力路125號","tel":"073426730","location":{"lat":22.6666981,"lng":120.3218714}},{"name":"民族派出所","address":"高雄市三民區民族一路208號","tel":"073822653","location":{"lat":22.6478344,"lng":120.3151021}},{"name":"覺民派出所","address":"高雄市三民區覺民路366號","tel":"073842108","location":{"lat":22.6407684,"lng":120.3337458}},{"name":"六龜分局","address":"高雄市六龜區中興里中庄153號","tel":"076891119","location":{"lat":23.0108714,"lng":120.6660044}},{"name":"高中派出所","address":"高雄市桃源區興中巷90號","tel":"076881385","location":{"lat":23.1266998,"lng":120.7143439}},{"name":"拉芙蘭派出所","address":"高雄市桃源區梅蘭里113號","tel":"076866087","location":{"lat":23.240657,"lng":120.811867}},{"name":"復興派出所","address":"高雄市桃源區復興里復興巷1號","tel":"076866087","location":{"lat":22.604172,"lng":120.274485}},{"name":"梅山派出所","address":"高雄市桃源區梅山里52號","tel":"076866170","location":{"lat":23.238822,"lng":120.834289}},{"name":"茂林分駐所","address":"高雄市茂林區茂林里茂林巷13號","tel":"076801200","location":{"lat":22.8848988,"lng":120.6638592}},{"name":"萬山派出所","address":"高雄市茂林區萬山里1號","tel":"076801203","location":{"lat":23.0108714,"lng":120.6660044}},{"name":"多納派出所","address":"高雄市茂林區多納里1號","tel":"076801208","location":{"lat":22.911244,"lng":120.71621}},{"name":"那瑪夏分駐所","address":"高雄市那瑪夏區瑪雅里平和巷89號","tel":"076701168","location":{"lat":23.271627,"lng":120.725906}},{"name":"達卡努瓦派出所","address":"高雄市那瑪夏區民生里秀嶺巷87號","tel":"076701118","location":{"lat":23.271627,"lng":120.725906}},{"name":"森濤派出所","address":"高雄市桃源區寶山里藤枝78號","tel":"076892474","location":{"lat":23.037768,"lng":120.707438}},{"name":"寶山派出所","address":"高雄市桃源區寶山里16號","tel":"076892464","location":{"lat":23.037768,"lng":120.707438}},{"name":"義寶派出所","address":"高雄市六龜區民生路1號","tel":"076891049","location":{"lat":22.9986571,"lng":120.6339728}},{"name":"桃源分駐所","address":"高雄市桃源區桃源里南進巷183號","tel":"076861176","location":{"lat":23.160988,"lng":120.76418}},{"name":"新威派出所","address":"高雄市六龜區新威路127號","tel":"076871176","location":{"lat":22.902204,"lng":120.628322}},{"name":"荖濃派出所","address":"高雄市六龜區裕濃路18號","tel":"076881014","location":{"lat":23.0656909,"lng":120.6721118}},{"name":"寶來派出所","address":"高雄市六龜區中正路21號","tel":"076881170","location":{"lat":23.0828192,"lng":120.5884132}},{"name":"建山派出所","address":"高雄市桃源區建山巷61號","tel":"076881170","location":{"lat":23.1014873,"lng":120.6840812}},{"name":"岡山分局","address":"高雄市岡山區壽天路10號","tel":"076212025","location":{"lat":22.7965583,"lng":120.2953333}},{"name":"深水派出所","address":"高雄市燕巢區深興路88號","tel":"076152054","location":{"lat":22.7724967,"lng":120.392258}},{"name":"舊港派出所","address":"高雄市彌陀區舊港橫路1號","tel":"076196994","location":{"lat":22.7994283,"lng":120.2316908}},{"name":"甲圍派出所","address":"高雄市橋頭區甲樹路1170號","tel":"076110384","location":{"lat":22.7418812,"lng":120.2965555}},{"name":"鳳雄派出所","address":"高雄市燕巢區鳳旗路171號","tel":"076153054","location":{"lat":22.753622,"lng":120.3543196}},{"name":"永安分駐所","address":"高雄市永安區永安路22號","tel":"076912044","location":{"lat":22.8173941,"lng":120.2225881}},{"name":"燕巢分駐所","address":"高雄市燕巢區中民路585號","tel":"076161402","location":{"lat":22.7932505,"lng":120.3623411}},{"name":"橋頭分駐所","address":"高雄市橋頭區成功路156號","tel":"076113555","location":{"lat":22.7578158,"lng":120.3102094}},{"name":"梓官分駐所","address":"高雄市梓官區梓官路267號","tel":"076171403","location":{"lat":22.7633335,"lng":120.2667104}},{"name":"彌陀分駐所","address":"高雄市彌陀區中華路16號","tel":"076176405","location":{"lat":22.791921,"lng":120.2885}},{"name":"赤崁派出所","address":"高雄市梓官區赤崁西路12號","tel":"076101404","location":{"lat":22.7371165,"lng":120.2462966}},{"name":"嘉興派出所","address":"高雄市岡山區嘉興路251號","tel":"076216401","location":{"lat":22.8217227,"lng":120.3034292}},{"name":"前峰派出所","address":"高雄市岡山區中華路53號","tel":"076265134","location":{"lat":22.7934156,"lng":120.2876798}},{"name":"壽天派出所","address":"高雄市岡山區大仁北路5號","tel":"076216400","location":{"lat":22.8017777,"lng":120.3018578}},{"name":"旗山分局","address":"高雄市旗山區華中街1號","tel":"076612001","location":{"lat":22.8879386,"lng":120.4830888}},{"name":"旗尾派出所","address":"高雄市旗山區延平二路21號","tel":"076614306","location":{"lat":22.8819828,"lng":120.4929654}},{"name":"廣興派出所","address":"高雄市美濃區民族路100號","tel":"076812794","location":{"lat":22.9137251,"lng":120.564559}},{"name":"廣福派出所","address":"高雄市旗山區旗屏二路18號","tel":"076613260","location":{"lat":22.8574561,"lng":120.504549}},{"name":"里關派出所","address":"高雄市甲仙區中興路44巷10號","tel":"076752006","location":{"lat":23.1080371,"lng":120.6063657}},{"name":"杉林分駐所","address":"高雄市杉林區上平里山仙路87之1號","tel":"076771154","location":{"lat":22.977307,"lng":120.542815}},{"name":"中埔派出所","address":"高雄市內門區中埔里中埔36號","tel":"076673308","location":{"lat":23.0108714,"lng":120.6660044}},{"name":"嶺口派出所","address":"高雄市旗山區旗南三路212號","tel":"076651021","location":{"lat":22.7736983,"lng":120.4496216}},{"name":"圓潭派出所","address":"高雄市旗山區旗甲路3段165號","tel":"076691307","location":{"lat":22.9327163,"lng":120.5032515}},{"name":"茄興派出所","address":"高雄市杉林區木梓里茄苳巷144號","tel":"076779274","location":{"lat":23.021733,"lng":120.544168}},{"name":"甲仙分駐所","address":"高雄市甲仙區和安街42號","tel":"076751204","location":{"lat":23.0829949,"lng":120.5894715}},{"name":"溝坪派出所","address":"高雄市內門區永興里頂庄9號","tel":"076601670","location":{"lat":23.0108714,"lng":120.6660044}},{"name":"內門分駐所","address":"高雄市內門區內門里內門114號","tel":"076671309","location":{"lat":22.943416,"lng":120.462543}},{"name":"吉東派出所","address":"高雄市美濃區中正路3段416號","tel":"076831744","location":{"lat":22.8546601,"lng":120.5340147}},{"name":"美濃分駐所","address":"高雄市美濃區美中路262號","tel":"076812029","location":{"lat":22.896505,"lng":120.542208}},{"name":"中壇派出所","address":"高雄市美濃區中興路1段636號","tel":"076812789","location":{"lat":22.8860948,"lng":120.5339028}},{"name":"大洲派出所","address":"高雄市旗山區旗南二路39號","tel":"076661305","location":{"lat":22.8477003,"lng":120.4660099}},{"name":"龍肚派出所","address":"高雄市美濃區龍肚街63號","tel":"076851797","location":{"lat":22.8816664,"lng":120.5725529}},{"name":"建國派出所","address":"高雄市旗山區華中街1號","tel":"076612045","location":{"lat":22.8879386,"lng":120.4830888}},{"name":"鳳山分局","address":"高雄市鳳山區經武路36號","tel":"077456110","location":{"lat":22.6274722,"lng":120.3627423}},{"name":"文山派出所","address":"高雄市鳳山區鳳松路127號","tel":"077324340","location":{"lat":22.6412143,"lng":120.363593}},{"name":"新甲派出所","address":"高雄市鳳山區新富路383號","tel":"077636944","location":{"lat":22.615816,"lng":120.3483167}},{"name":"埤頂派出所","address":"高雄市鳳山區中山東路497號","tel":"077013272","location":{"lat":22.628656,"lng":120.3806264}},{"name":"忠孝派出所","address":"高雄市鳳山區光復路2段188號","tel":"077402658","location":{"lat":22.6296236,"lng":120.341835}},{"name":"五甲派出所","address":"高雄市鳳山區五甲二路472號","tel":"077615839","location":{"lat":22.5975249,"lng":120.3348653}},{"name":"鳳崗派出所","address":"高雄市鳳山區曹公路23號","tel":"077412244","location":{"lat":22.6270885,"lng":120.3572391}},{"name":"成功派出所","address":"高雄市鳳山區中山東路16號","tel":"077462453","location":{"lat":22.6202161,"lng":120.3648168}},{"name":"過埤派出所","address":"高雄市鳳山區保生路69號","tel":"077923028","location":{"lat":22.5926034,"lng":120.3599727}},{"name":"南成派出所","address":"高雄市鳳山區和成路37、39號","tel":"077928393","location":{"lat":22.5940832,"lng":120.3429821}},{"name":"林園分局","address":"高雄市林園區林園北路201號","tel":"076412004","location":{"lat":22.5076454,"lng":120.394907}},{"name":"昭明派出所","address":"高雄市大寮區鳳林一路287號","tel":"076411903","location":{"lat":22.5462603,"lng":120.4098003}},{"name":"大寮分駐所","address":"高雄市大寮區鳳林三路377號","tel":"077816335","location":{"lat":22.6023538,"lng":120.3972571}},{"name":"忠義派出所","address":"高雄市大寮區鳳林四路353號","tel":"077817429","location":{"lat":22.6188045,"lng":120.3835858}},{"name":"中庄派出所","address":"高雄市大寮區仁愛路101號","tel":"077016714","location":{"lat":22.6351434,"lng":120.3954203}},{"name":"中芸派出所","address":"高雄市林園區力行路250號","tel":"076412792","location":{"lat":22.485443,"lng":120.4008307}},{"name":"港埔派出所","address":"高雄市林園區沿海路4段326號","tel":"076413695","location":{"lat":22.5032705,"lng":120.3820214}},{"name":"林園派出所","address":"高雄市林園區林園北路201號","tel":"076412013","location":{"lat":22.5076454,"lng":120.394907}},{"name":"湖內分局","address":"高雄市湖內區中山路1段290號","tel":"076932155","location":{"lat":22.8854575,"lng":120.2456411}},{"name":"竹滬派出所","address":"高雄市路竹區華山路31號","tel":"076981824","location":{"lat":22.8623179,"lng":120.2289197}},{"name":"崇德派出所","address":"高雄市田寮區崇德路49號","tel":"076366774","location":{"lat":22.8774298,"lng":120.3805664}},{"name":"砂崙派出所","address":"高雄市茄定區白砂路239巷2弄9號","tel":"076900055","location":{"lat":22.9074953,"lng":120.1839839}},{"name":"蛙潭派出所","address":"高雄市田寮區七星路11號","tel":"076361192","location":{"lat":22.8292081,"lng":120.3908774}},{"name":"古亭派出所","address":"高雄市田寮區古亭路39號","tel":"076367058","location":{"lat":22.8934736,"lng":120.4032122}},{"name":"湖街派出所","address":"高雄市湖內區中山路1段290之1號","tel":"076934784","location":{"lat":22.8854575,"lng":120.2456411}},{"name":"阿蓮分駐所","address":"高雄市阿蓮區忠孝路226號","tel":"076312029","location":{"lat":22.8783595,"lng":120.3265406}},{"name":"田寮分駐所","address":"高雄市田寮區崗安路99號","tel":"076361878","location":{"lat":22.8734983,"lng":120.3581109}},{"name":"茄萣分駐所","address":"高雄市茄萣區茄萣路2段1號","tel":"076902272","location":{"lat":22.8986997,"lng":120.1831932}},{"name":"路竹分駐所","address":"高雄市路竹區國昌路86巷24號","tel":"076962615","location":{"lat":22.8552091,"lng":120.259026}},{"name":"湖內派出所","address":"高雄市湖內區中正路2段95號","tel":"076993229","location":{"lat":22.9083595,"lng":120.2103069}},{"name":"一甲派出所","address":"高雄市路竹區金平路356號","tel":"076962954","location":{"lat":22.8696403,"lng":120.2701181}},{"name":"仁武分局","address":"高雄市仁武區中正路135號","tel":"073719421","location":{"lat":22.644499,"lng":120.365031}},{"name":"溪埔派出所","address":"高雄市大樹區溪埔路65號","tel":"076561044","location":{"lat":22.7278259,"lng":120.4446419}},{"name":"大樹分駐所","address":"高雄市大樹區中興南路15號","tel":"076512439","location":{"lat":22.6896845,"lng":120.4334524}},{"name":"仁武派出所","address":"高雄市仁武區中正路135號","tel":"073711432","location":{"lat":22.644499,"lng":120.365031}},{"name":"大社分駐所","address":"高雄市大社區金龍路63號","tel":"073511369","location":{"lat":22.7306288,"lng":120.3539164}},{"name":"九曲派出所","address":"高雄市大樹區久堂路130號","tel":"076512027","location":{"lat":22.6577099,"lng":120.4175498}},{"name":"仁美派出所","address":"高雄市鳥松區仁德路16號","tel":"077314057","location":{"lat":22.6500088,"lng":120.3958787}},{"name":"大華派出所","address":"高雄市鳥松區澄清路821號","tel":"073701994","location":{"lat":22.6473841,"lng":120.347151}},{"name":"鳥松分駐所","address":"高雄市鳥松區中正路96號之1","tel":"077326240","location":{"lat":22.644482,"lng":120.366126}},{"name":"澄觀派出所","address":"高雄市仁武區八德西路189號","tel":"073718188","location":{"lat":22.6834634,"lng":120.3289901}}]